,no_suivi,no_rapport,type_rapport,date_envoi,crc,titre,note,type_etablissement,lat,long,ville,departement
0,,jf00130898.html,Rapport d'observations définitives,08/01/2013,CRC Aquitaine Poitou-Charentes,"Association - Association Petite Enfance, Enfance et Famille (APEEF) - Bordeaux (Gironde)",-94,Association,44.8572445351,-0.57369678116,Bordeaux,Gironde
1,033 090 972,jf00130900.html,Rapport d'observations définitives,09/01/2013,CRC Aquitaine Poitou-Charentes,Centre de gestion de la fonction publique territoriale - Centre de Gestion de la Fonction Publique Territoriale de la Gironde - Bordeaux (Gironde),-117,Centre de gestion de la fonction publique territoriale,44.8572445351,-0.57369678116,Bordeaux,Gironde
2,,jf00131109.html,Rapport d'observations définitives,11/01/2013,CRC Aquitaine Poitou-Charentes,Communauté de communes - Communauté de communes Coeur du Bocage - Bressuire (Deux-Sèvres),65,Communauté de communes,46.8545755683,-0.479375922286,Bressuire,Deux-Sèvres
3,,jf00131130.html,Rapport d'observations définitives,15/01/2013,CRC Aquitaine Poitou-Charentes,Etablissement hospitalier public - Centre hospitalier d'Agen - Agen (Lot-et-Garonne),-253,Etablissement hospitalier public,44.202813910399996,0.625583928763,Agen,Lot-et-Garonne
4,,jf00131365.html,Rapport d'observations définitives,22/01/2013,CRC Aquitaine Poitou-Charentes,Commune - Gradignan -  (Gironde),-95,Commune,44.77426699999999,-0.618945,Gradignan,Gironde
5,12-0298 R,jf00131547.html,Rapport d'observations définitives,21/01/2013,CRC Ile-de-France,Société d'économie mixte - Société d'aménagement et de développement des villes du Val-de-Marne (SADEV 94) - Vincennes (Val-de-Marne),-552,Société d'économie mixte,48.847373204499995,2.43798650741,Vincennes,Val-de-Marne
6,,jf00131754.html,Rapport d'observations définitives,05/02/2013,CRC Aquitaine Poitou-Charentes,Groupement d'intérêt public - Maison Départementale des Personnes Handicapées (MDPH) de la Gironde - Bordeaux (Gironde),-38,Groupement d'intérêt public,44.8572445351,-0.57369678116,Bordeaux,Gironde
7,33021069,jf00131775.html,Rapport d'observations définitives,05/02/2013,CRC Aquitaine Poitou-Charentes,Commune - Le Bouscat -  (Gironde),-100,Commune,44.865164,-0.59944,Le Bouscat,Gironde
8,,jf00131834.html,Rapport d'observations définitives,05/02/2013,CRC Aquitaine Poitou-Charentes,Centre communal d'action sociale - Centre Intercommunal d'Action Sociale du Marsan - Mont-de-Marsan (Landes),-132,Centre communal d'action sociale,43.899361404,-0.490722577455,Mont-de-Marsan,Landes
9,2006-2011,jf00131891.html,Rapport d'observations définitives,28/01/2013,CRC Basse-Normandie Haute-Normandie,Commune - Fecamp -  (Seine-Maritime),46,Commune,49.755601,0.380774,Fécamp,Seine-Maritime
10,2013-03,jf00131905.html,Rapport d'observations définitives,11/01/2013,CRC Bretagne,Centre communal d'action sociale - Centre communal d'action sociale de Lanester - Lanester (Morbihan),0,Centre communal d'action sociale,47.769192427700006,-3.3264831796200003,Lanester,Morbihan
11,13 -  119   ,jf00131922.html,Rapport d'observations définitives,05/02/2013,CRC Alsace,Communauté urbaine - Communaute Urbaine de Strasbourg (CUS) - Strasbourg (Bas-Rhin),-450,Communauté urbaine,48.5712679849,7.767526795169999,Strasbourg,Bas-Rhin
12,,jf00131945.html,Rapport d'observations définitives,22/01/2013,CRC Centre Limousin,Commune - Bourges - Bourges (Cher),-286,Commune,47.0749572013,2.4041713755700003,Bourges,Cher
13,13-CC-07,jf00131996.html,Rapport d'observations définitives,24/01/2013,CRC Bourgogne Franche-Comté,"Etablissement public local d'enseignement - Lycée polyvalent ""Le Castel"" - Dijon (Côte-d'Or)",-96,Etablissement public local d'enseignement,47.3229437965,5.03788805877,Dijon,Côte-d'Or
14,12-0312 R,jf00132002.html,Rapport d'observations définitives,11/01/2013,CRC Ile-de-France,"Office public de l'habitat - Office public d'HLM interdepartemental de l'Essonne, du Val-d'Oise et des Yvelines (OPIEVOY) - Versailles (Yvelines)",-143,Office public de l'habitat,48.8025669671,2.11789297191,Versailles,Yvelines
15,2013-02,jf00132182.html,Rapport d'observations définitives,04/01/2013,CRC Bretagne,Société d'économie mixte - SEM Lorient-Keroman - Lorient (Morbihan),-122,Société d'économie mixte,47.75004869470001,-3.37823200917,Lorient,Morbihan
16,2013-05,jf00132183.html,Rapport d'observations définitives,30/01/2013,CRC Bretagne,Commune - Quiberon - Quiberon (Morbihan),-66,Commune,47.488165751800004,-3.12282400639,Quiberon,Morbihan
17,,jf00132190.html,Rapport d'observations définitives,25/02/2013,CRC Aquitaine Poitou-Charentes,Etablissement hospitalier public - Centre hospitalier du Nord Deux-Sevres - Parthenay (Deux-Sèvres),-240,Etablissement hospitalier public,46.6453493842,-0.233028439198,Parthenay,Deux-Sèvres
18,13-ROD2-PJ-04,jf00132214.html,Rapport d'observations définitives,18/01/2013,CRC Bourgogne Franche-Comté,Département - Conseil général de la Nièvre - Nevers (Nièvre),-146,Département,46.9881194908,3.15689130958,Nevers,Nièvre
19,2013-203,jf00132218.html,Rapport d'observations définitives,31/01/2013,CRC Pays de la Loire,Commune - Saint-Gilles-Croix-de-Vie -  (Vendée),9,Commune,46.69777699999999,-1.944529,Saint-Gilles-Croix-de-Vie,Vendée
20,,jf00132230.html,Rapport d'observations définitives,25/01/2013,CRC Aquitaine Poitou-Charentes,Groupement d'intérêt public - Maison Landaise des Personnes Handicapées (MDPH) - Mont-de-Marsan (Landes),-219,Groupement d'intérêt public,43.899361404,-0.490722577455,Mont-de-Marsan,Landes
21,2013-04,jf00132412.html,Rapport d'observations définitives,28/01/2013,CRC Bretagne,Commune - Séné - Séné (Morbihan),-9,Commune,47.6228786892,-2.72442609453,Séné,Morbihan
22,5,jf00132436.html,Rapport d'observations définitives,23/01/2013,CRC Centre Limousin,Commune - Selles-Saint-Denis - Selles-Saint-Denis (Loir-et-Cher),28,Commune,47.3757781053,1.90655896666,Selles-Saint-Denis,Loir-et-Cher
23,6,jf00132440.html,Rapport d'observations définitives,07/01/2013,CRC Centre Limousin,Département - Conseil général de la Haute-Vienne - Limoges (Haute-Vienne),-74,Département,45.8542549589,1.2487579024,Limoges,Haute-Vienne
24,2006-2012,jf00132444.html,Rapport d'observations définitives,10/01/2013,CRC Basse-Normandie Haute-Normandie,Syndicat mixte - Parc naturel régional des Boucles de la Seine Normande(PNR-BSN) - Notre-dame-de-Bliquetuit (Seine-Maritime),-91,Syndicat mixte,49.4959539726,0.753080811666,Notre-dame-de-Bliquetuit,Seine-Maritime
25,2013-01,jf00132493.html,Rapport d'observations définitives,02/01/2013,CRC Bretagne,Communauté de communes - Communaute de communes du haut pays bigouden - Pouldreuzic (Finistère),59,Communauté de communes,47.96127175149999,-4.3641326508199985,Pouldreuzic,Finistère
26,203-72,jf00132547.html,Rapport d'observations définitives,06/02/2013,CRC Guadeloupe-Guyane-Martinique,Commune - Commune de Capesterre-Belle-Eau - Capesterre-Belle-Eau (Guadeloupe),-21,Commune,16.038700400000003,-61.5778481,Capesterre-Belle-Eau,Guadeloupe
27,2013-02,jf00132601.html,Rapport d'observations définitives,01/03/2013,CRC Auvergne Rhône-Alpes,Commune - Saint-Gervais-les-Bains - Saint-Gervais-les-Bains (Haute-Savoie),29,Commune,45.8571864862,6.74016257718,Saint-Gervais-les-Bains,Haute-Savoie
28,LRR201301,jf00132697.html,Rapport d'observations définitives,06/02/2013,CRC Languedoc-Roussillon,Département - Conseil général de l'Aude - Carcassonne (Aude),-131,Département,43.2093798444,2.34398855385,Carcassonne,Aude
29,2005-2012,jf00132734.html,Rapport d'observations définitives,24/01/2013,CRC Basse-Normandie Haute-Normandie,Syndicat intercommunal - Syndicat intercommunal d'équipement d'Harfleur et de Gonfreville-L'Orcher (SIEHGO) - Gonfreville-L'Orcher (Seine-Maritime),-14,Syndicat intercommunal,49.4860837457,0.221985693724,Gonfreville-L'Orcher,Seine-Maritime
30,2006-2011,jf00132753.html,Rapport d'observations définitives,01/02/2013,CRC Basse-Normandie Haute-Normandie,Université - Université de Rouen - Rouen (Seine-Maritime),-29,Université,49.441346010299995,1.09256784278,Rouen,Seine-Maritime
31,,jf00132834.html,Rapport d'observations définitives,15/03/2013,CRC Aquitaine Poitou-Charentes,Commune - Saintes -  (Charente-Maritime),72,Commune,45.744175,-0.633389,Saintes,Charente-Maritime
32,,jf00132960.html,Rapport d'observations définitives,05/02/2013,CRC Alsace,Commune - Ville de Strasbourg - Strasbourg (Bas-Rhin),-375,Commune,48.5712679849,7.767526795169999,Strasbourg,Bas-Rhin
33,,jf00132963.html,Rapport d'observations définitives,27/02/2013,CRC Aquitaine Poitou-Charentes,Commune - Bruges -  (Gironde),-92,Commune,44.88179299999999,-0.6127469999999999,Bruges,Gironde
34,2013-07,jf00133016.html,Rapport d'observations définitives,11/03/2013,CRC Bretagne,Communauté de communes - communaute de communes du Pays de Douarnenez - Douarnenez (Finistère),-172,Communauté de communes,48.080652655600005,-4.32784220122,Douarnenez,Finistère
35,2013-08,jf00133054.html,Rapport d'observations définitives,11/03/2013,CRC Bretagne,Commune - Pleneuf-Val-Andre - Pléneuf-Val-André (Côtes-d'Armor),269,Commune,48.5840054611,-2.53016887694,Pléneuf-Val-André,Côtes-d'Armor
36,2013-204,jf00133068.html,Rapport d'observations définitives,28/02/2013,CRC Pays de la Loire,Communauté de communes - Communauté de communes du Sud Estuaire - Paimboeuf (Loire-Atlantique),-54,Communauté de communes,47.2863992883,-2.02807425552,Paimboeuf,Loire-Atlantique
37,2013-06,jf00133164.html,Rapport d'observations définitives,26/02/2013,CRC Bretagne,Commune - La Nouaye - La Nouaye (Ille-et-Vilaine),65,Commune,48.16621740340001,-1.97457609624,La Nouaye,Ille-et-Vilaine
38,564,jf00133195.html,Rapport d'observations définitives,07/03/2013,CRC Provence-Alpes-Côte d'Azur,"Commune - Roquebrune-Cap-Martin
 - Roquebrune-Cap-Martin (Alpes-Maritimes)",16,Commune,43.7638278953,7.4587361611,Roquebrune-Cap-Martin,Alpes-Maritimes
39,2013-03,jf00133220.html,Rapport d'observations définitives,28/03/2013,CRC Auvergne Rhône-Alpes,Communauté d'agglomération - Communauté d'agglomération du Bassin aurillacois (CABA) - Aurillac (Cantal),-32,Communauté d'agglomération,44.9245233686,2.44162453828,Aurillac,Cantal
40,LRR201302,jf00133233.html,Rapport d'observations définitives,13/02/2013,CRC Languedoc-Roussillon,Etablissement hospitalier public - Centre hospitalier de Perpignan - Perpignan (Pyrénées-Orientales),-544,Etablissement hospitalier public,42.6965954131,2.8993695397900003,Perpignan,Pyrénées-Orientales
41,2013-11,jf00133278.html,Rapport d'observations définitives,13/03/2013,CRC Bretagne,Commune - Plouguerneau - Plouguerneau (Finistère),77,Commune,48.6030672193,-4.48961925754,Plouguerneau,Finistère
42,13-ROD2-MLC-08,jf00133280.html,Rapport d'observations définitives,28/01/2013,CRC Bourgogne Franche-Comté,Etablissement hospitalier public - Centre hospitalier Robert Morlevat - Semur-en-Auxois (Côte-d'Or),41,Etablissement hospitalier public,47.4909559267,4.3410636676099985,Semur-en-Auxois,Côte-d'Or
43,2013-205,jf00133302.html,Rapport d'observations définitives,11/03/2013,CRC Pays de la Loire,Office public de l'habitat - Mayenne Habitat - Laval (Mayenne),42,Office public de l'habitat,48.060856546800004,-0.766005687142,Laval,Mayenne
44,CALR201213,jf00133378.html,Rapport d'observations définitives,11/02/2013,CRC Champagne-Ardenne Lorraine,Crédit municipal - Caisse de Crédit municipal de Nancy - Nancy (Meurthe-et-Moselle),-283,Crédit municipal,48.6901995499,6.17588254434,Nancy,Meurthe-et-Moselle
45,CALR201211,jf00133380.html,Rapport d'observations définitives,21/01/2013,CRC Champagne-Ardenne Lorraine,Société d'économie mixte - Société d'économie mixte SOLOREM - Nancy (Meurthe-et-Moselle),-12,Société d'économie mixte,48.6901995499,6.17588254434,Nancy,Meurthe-et-Moselle
46,NPr201306,jf00133403.html,Rapport d'observations définitives,28/02/2013,CRC Nord-Pas-de-Calais Picardie,Communauté de communes - Communauté de communes du Pays Noyonnais - Noyon (Oise),-170,Communauté de communes,49.577434331800006,3.00799806171,Noyon,Oise
47,2013-09,jf00133406.html,Rapport d'observations définitives,11/03/2013,CRC Bretagne,Commune - Montreuil-sur-Ille - Montreuil-sur-Ille (Ille-et-Vilaine),-32,Commune,48.3053148028,-1.6686934187,Montreuil-sur-Ille,Ille-et-Vilaine
48,7,jf00133418.html,Rapport d'observations définitives,26/02/2013,CRC Centre Limousin,Etablissement hospitalier public - Hôpital intercommunal du Haut-Limousin - Bellac (Haute-Vienne),-135,Etablissement hospitalier public,46.1049122554,1.04116467219,Bellac,Haute-Vienne
49,2013-12,jf00133425.html,Rapport d'observations définitives,15/03/2013,CRC Bretagne,Communauté de communes - communaute de communes du Cap Sizun - Audierne (Finistère),-69,Communauté de communes,48.024107757399996,-4.54448750165,Audierne,Finistère
50,CALR201308,jf00133485.html,Rapport d'observations définitives,30/01/2013,CRC Champagne-Ardenne Lorraine,Etablissement hospitalier public - Hôpital de l'Avison  - Bruyères (Vosges),-186,Etablissement hospitalier public,48.2129348466,6.71603066311,Bruyères,Vosges
51,,jf00133507.html,Rapport d'observations définitives,18/04/2013,CRC Aquitaine Poitou-Charentes,Commune - Agen -  (Lot-et-Garonne),25,Commune,44.203142,0.616363,Agen,Lot-et-Garonne
52,2013-009,jf00133508.html,Rapport d'observations définitives,26/12/2013,CRC Midi-Pyrénées,Syndicat mixte - Syndicat mixte départemental pour l'élimination des déchets ménagers et assimilés du Lot (SYDED) - Catus (Lot),45,Syndicat mixte,44.5584146549,1.34151024683,Catus,Lot
53,2013-05,jf00133515.html,Rapport d'observations définitives,26/02/2013,CRC Auvergne Rhône-Alpes,Commune - Valence - Valence (Drôme),-310,Commune,44.9229811667,4.91444013136,Valence,Drôme
54,2013-196,jf00133516.html,Rapport d'observations définitives,25/02/2013,CRC Guadeloupe-Guyane-Martinique,Commune - Commune de Rémire-Montjoly - Rémire-Montjoly (Guyane),-87,Commune,4.912014,-52.275169,Rémire-Montjoly,Guyane
55,2012-0298R,jf00133529.html,Rapport d'observations définitives,21/01/2013,CRC Ile-de-France,Société d'économie mixte - Société d'aménagement et de développement des villes du Val-de-Marne (SADEV 94) - Vincennes (Val-de-Marne),-145,Société d'économie mixte,48.847373204499995,2.43798650741,Vincennes,Val-de-Marne
56,LRR201303,jf00133545.html,Rapport d'observations définitives,17/04/2013,CRC Languedoc-Roussillon,Région - Region Languedoc-Roussillon - Montpellier (Hérault),-314,Région,43.6134409138,3.86851657896,Montpellier,Hérault
57,2013-10,jf00133552.html,Rapport d'observations définitives,13/03/2013,CRC Bretagne,Communauté de communes - communaute de communes de la Cote de Penthievre - Saint-Alban (Côtes-d'Armor),36,Communauté de communes,48.5551884911,-2.50893906207,Saint-Alban,Côtes-d'Armor
58,2013-012,jf00133604.html,Rapport d'observations définitives,12/02/2013,CRC Midi-Pyrénées,Etablissement hospitalier public - Centre hospitalier de Condom - Condom (Gers),-291,Etablissement hospitalier public,43.9716968333,0.374186827134,Condom,Gers
59,NPR201307,jf00133625.html,Rapport d'observations définitives,15/01/2013,CRC Nord-Pas-de-Calais Picardie,Centre communal d'action sociale - Centre communal d'action sociale de Wattrelos - Wattrelos (Nord),-304,Centre communal d'action sociale,50.705636728500004,3.21628221056,Wattrelos,Nord
60,2006-2012,jf00133631.html,Rapport d'observations définitives,28/01/2013,CRC Basse-Normandie Haute-Normandie,Université - Universite du Havre - Le Havre (Seine-Maritime),-82,Université,49.498452502,0.140153719153,Le Havre,Seine-Maritime
61,2013-06,jf00133648.html,Rapport d'observations définitives,01/03/2013,CRC Auvergne Rhône-Alpes,Etablissement hospitalier public - Centre hospitalier de Grenoble - Grenoble (Isère),-515,Etablissement hospitalier public,45.1821215167,5.721330517519998,Grenoble,Isère
62,,jf00133715.html,Rapport d'observations définitives,26/04/2013,CRC Aquitaine Poitou-Charentes,Association - L'Arche de Noé - Bayonne (Pyrénées-Atlantiques),-18,Association,43.492225401599995,-1.4660767435799995,Bayonne,Pyrénées-Atlantiques
63,,jf00133716.html,Rapport d'observations définitives,02/05/2013,CRC Aquitaine Poitou-Charentes,Département - Département des Landes - Mont-de-Marsan (Landes),-50,Département,43.899361404,-0.490722577455,Mont-de-Marsan,Landes
64,,jf00133718.html,Rapport d'observations définitives,06/05/2013,CRC Aquitaine Poitou-Charentes,Commune - Lagord -  (Charente-Maritime),-29,Commune,46.190717,-1.1540028999999998,Lagord,Charente-Maritime
65,2013-15,jf00133800.html,Rapport d'observations définitives,24/04/2013,CRC Bretagne,Commune - Commune de Vern-sur-Seiche - Vern-sur-Seiche (Ille-et-Vilaine),-114,Commune,48.0525245014,-1.60521106164,Vern-sur-Seiche,Ille-et-Vilaine
66,13-ROD2-FB-05,jf00133915.html,Rapport d'observations définitives,23/01/2013,CRC Bourgogne Franche-Comté,"Association - Association ""Yonne Active Création"" - Auxerre (Yonne)",23,Association,47.793488225,3.58168281761,Auxerre,Yonne
67,2012-207,jf00133927.html,Rapport d'observations définitives,26/04/2013,CRC Pays de la Loire,Commune - La Turballe -  (Loire-Atlantique),11,Commune,47.348472,-2.511759,La Turballe,Loire-Atlantique
68,2013-  422 ,jf00133981.html,Rapport d'observations définitives,22/04/2013,CRC Alsace,Etablissement hospitalier public - Etablissement public de santé Alsace Nord - Brumath (Bas-Rhin),-33,Etablissement hospitalier public,48.7204656106,7.71740193625,Brumath,Bas-Rhin
69,9,jf00133989.html,Rapport d'observations définitives,29/04/2013,CRC Centre Limousin,Communauté d'agglomération - communauté d'agglomération de Blois AGGLOPOLYS - Blois (Loir-et-Cher),-14,Communauté d'agglomération,47.5817013938,1.30625551583,Blois,Loir-et-Cher
70,11,jf00134000.html,Rapport d'observations définitives,25/03/2013,CRC Centre Limousin,Conseil d'architecture d'urbanisme et d'environnement - Conseil d'architecture et d'environnement (CAUE) du Cher - Bourges (Cher),-61,Conseil d'architecture d'urbanisme et d'environnement,47.0749572013,2.4041713755700003,Bourges,Cher
71,,jf00134009.html,Rapport d'observations définitives,21/05/2013,CRC Aquitaine Poitou-Charentes,Groupement d'intérêt public - Maison Départementale des Personnes Handicapées (MDPH) des Pyrénées-Atlantiques - Pau (Pyrénées-Atlantiques),-322,Groupement d'intérêt public,43.320018977299995,-0.350337918181,Pau,Pyrénées-Atlantiques
72,12,jf00134036.html,Rapport d'observations définitives,22/04/2013,CRC Centre Limousin,Office public de l'habitat - OPH Chartres Habitat - Chartres (Eure-et-Loir),-77,Office public de l'habitat,48.4471464884,1.50570610616,Chartres,Eure-et-Loir
73,2013-14,jf00134039.html,Rapport d'observations définitives,08/04/2013,CRC Bretagne,Commune - Bénodet - Bénodet (Finistère),115,Commune,47.8780985371,-4.07751294821,Bénodet,Finistère
74,13-ROD2-AV-14,jf00134178.html,Rapport d'observations définitives,02/05/2013,CRC Bourgogne Franche-Comté,Département - Conseil général de l'Yonne - Auxerre (Yonne),-33,Département,47.793488225,3.58168281761,Auxerre,Yonne
75,2013-015,jf00134179.html,Rapport d'observations définitives,22/04/2013,CRC Midi-Pyrénées,Commune - L'Union - L'Union (Haute-Garonne),18,Commune,43.654247042799994,1.48394847329,L'Union,Haute-Garonne
76,2013-18,jf00134246.html,Rapport d'observations définitives,17/05/2013,CRC Bretagne,Association - Association Palais du Grand Large - Saint-Malo (Ille-et-Vilaine),-66,Association,48.6400443482,-1.98060627256,Saint-Malo,Ille-et-Vilaine
77,2006-2011,jf00134287.html,Rapport d'observations définitives,06/02/2013,CRC Basse-Normandie Haute-Normandie,Région - Basse-Normandie (Aides à  la création d'entreprises) - Caen (Calvados),192,Région,49.1847936737,-0.369801713036,Caen,Calvados
78,13-ROD2-PM-12,jf00134292.html,Rapport d'observations définitives,12/04/2013,CRC Bourgogne Franche-Comté,Etablissement hospitalier public - Centre hospitalier intercommunal de la Haute-Saône - Vesoul (Haute-Saône),-397,Etablissement hospitalier public,47.6320408648,6.1548458149,Vesoul,Haute-Saône
79,2013-08,jf00134297.html,Rapport d'observations définitives,17/05/2013,CRC Auvergne Rhône-Alpes,Communauté de communes - Communaute de communes de la Plaine de l'Ain - Chazey-sur-Ain (Ain),-151,Communauté de communes,45.8929448968,5.25528498524,Chazey-sur-Ain,Ain
80,13- 369 ,jf00134367.html,Rapport d'observations définitives,10/04/2013,CRC Alsace,"Société d'économie mixte - Foyer moderne de Schiltigheim
 - Schiltigheim (Bas-Rhin)",-324,Société d'économie mixte,48.6118660258,7.74408199334,Schiltigheim,Bas-Rhin
81,2013-09,jf00134392.html,Rapport d'observations définitives,15/04/2013,CRC Auvergne Rhône-Alpes,Commune - Aurillac - Aurillac (Cantal),-37,Commune,44.9245233686,2.44162453828,Aurillac,Cantal
82,2013-11,jf00134396.html,Rapport d'observations définitives,31/05/2013,CRC Auvergne Rhône-Alpes,Syndicat mixte - Syndicat mixte de la Plaine de l'Ain (SYMPA) - Saint-Vulbas (Ain),-74,Syndicat mixte,45.822231510200005,5.27019602929,Saint-Vulbas,Ain
83,2013-210,jf00134459.html,Rapport d'observations définitives,16/05/2013,CRC Pays de la Loire,Office public de l'habitat - Sèvre Loire Habitat - Cholet (Maine-et-Loire),34,Office public de l'habitat,47.0454402992,-0.877886189605,Cholet,Maine-et-Loire
84,2007-2012,jf00134529.html,Rapport d'observations définitives,14/06/2013,CRC Basse-Normandie Haute-Normandie,Communauté de communes - Communaute de communes de Lisieux-Pays d'Auge - Lisieux (Calvados),-62,Communauté de communes,49.1466628463,0.238274840452,Lisieux,Calvados
85,2006-2012,jf00134532.html,Rapport d'observations définitives,02/05/2013,CRC Basse-Normandie Haute-Normandie,Communauté de communes - Communaute de communes des Pieux - Les Pieux (Manche),66,Communauté de communes,49.5103059572,-1.82036292827,Les Pieux,Manche
86,2010-2012,jf00134545.html,Rapport d'observations définitives,17/04/2013,CRC Basse-Normandie Haute-Normandie,Etablissement hospitalier public - Centre hospitalier universitaire (CHU) de Caen - Caen (Calvados),-407,Etablissement hospitalier public,49.1847936737,-0.369801713036,Caen,Calvados
87,,jf00134553.html,Rapport d'observations définitives,13/06/2013,CRC Aquitaine Poitou-Charentes,Commune - Cestas -  (Gironde),-115,Commune,44.741163,-0.6843549999999999,Cestas,Gironde
88,13,jf00134583.html,Rapport d'observations définitives,15/04/2013,CRC Centre Limousin,Communauté de communes - Communauté de communes de la Forêt - Neuville-aux-Bois (Loiret),-26,Communauté de communes,48.0689002609,2.0592389448,Neuville-aux-Bois,Loiret
89,D131084,jf00134597.html,Rapport d'observations définitives,17/05/2013,CRC Auvergne Rhône-Alpes,Communauté de communes - Communauté de communes du canton de Rumilly (C3R) - Rumilly (Haute-Savoie),-221,Communauté de communes,45.8555126651,5.940752874319999,Rumilly,Haute-Savoie
90,D131300,jf00134599.html,Rapport d'observations définitives,03/06/2013,CRC Auvergne Rhône-Alpes,Centre communal d'action sociale - Centre communal d'action sociale de Rumilly - Rumilly (Haute-Savoie),-288,Centre communal d'action sociale,45.8555126651,5.940752874319999,Rumilly,Haute-Savoie
91,14,jf00134601.html,Rapport d'observations définitives,30/04/2013,CRC Centre Limousin,Commune - Commune de Vendôme - Vendôme (Loir-et-Cher),115,Commune,47.8013026692,1.06106057175,Vendôme,Loir-et-Cher
92,nÂ° 2013-01,jf00134602.html,Rapport d'observations définitives,02/01/2013,CRC Bretagne,Communauté de communes - Communaute de communes du haut pays bigouden - Pouldreuzic (Finistère),27,Communauté de communes,47.96127175149999,-4.3641326508199985,Pouldreuzic,Finistère
93,2013-13,jf00134639.html,Rapport d'observations définitives,28/03/2013,CRC Bretagne,"Office public de l'habitat - Office public de l'habitat ""Dinan Codi Habitat"" - Quévert (Côtes-d'Armor)",-20,Office public de l'habitat,48.463126898999995,-2.08562877928,Quévert,Côtes-d'Armor
94,,jf00134665.html,Rapport d'observations définitives,26/06/2013,CRC Aquitaine Poitou-Charentes,Commune - Saint-Seurin-sur-l'Isle -  (Gironde),5,Commune,45.014104,-0.001502,Saint-Seurin-sur-l'Isle,Gironde
95,2013-212,jf00134668.html,Rapport d'observations définitives,27/05/2013,CRC Pays de la Loire,Société d'économie mixte - La Folle Journée - Nantes (Loire-Atlantique),-133,Société d'économie mixte,47.2316356767,-1.54831008605,Nantes,Loire-Atlantique
96,,jf00134670.html,Rapport d'observations définitives,27/06/2013,CRC Aquitaine Poitou-Charentes,Région - Région Aquitaine - Bordeaux (Gironde),28,Région,44.8572445351,-0.57369678116,Bordeaux,Gironde
97,,jf00134706.html,Rapport d'observations définitives,27/06/2013,CRC Aquitaine Poitou-Charentes,Commune - Bon-Encontre -  (Lot-et-Garonne),10,Commune,44.186116,0.668438,Bon-Encontre,Lot-et-Garonne
98,2008-2013,jf00134709.html,Rapport d'observations définitives,24/06/2013,CRC Basse-Normandie Haute-Normandie,Etablissement hospitalier public - Centre hospitalier universitaire de Rouen - Rouen (Seine-Maritime),-158,Etablissement hospitalier public,49.441346010299995,1.09256784278,Rouen,Seine-Maritime
99,2013-16,jf00134722.html,Rapport d'observations définitives,02/05/2013,CRC Bretagne,Communauté de communes - Communaute de communes de la Baie du Kernic - Cléder (Finistère),-30,Communauté de communes,48.6605439147,-4.12447333857,Cléder,Finistère
100,13 - 613,jf00134736.html,Rapport d'observations définitives,07/06/2013,CRC Alsace,Communauté de communes - Communauté de communes de Guebwiller - Guebwiller (Haut-Rhin),0,Communauté de communes,47.909669220699996,7.210135000069998,Guebwiller,Haut-Rhin
101,2013-22,jf00134737.html,Rapport d'observations définitives,31/05/2013,CRC Bretagne,Commune - Saint-Malo - Saint-Malo (Ille-et-Vilaine),-17,Commune,48.6400443482,-1.98060627256,Saint-Malo,Ille-et-Vilaine
102,2013- 686,jf00134739.html,Rapport d'observations définitives,18/06/2013,CRC Alsace,Syndicat intercommunal - syndicat des eaux et de l'assainissement du Bas-Rhin  - Strasbourg (Bas-Rhin),276,Syndicat intercommunal,48.5712679849,7.767526795169999,Strasbourg,Bas-Rhin
103,D131151,jf00134741.html,Rapport d'observations définitives,27/05/2013,CRC Auvergne Rhône-Alpes,Syndicat mixte - Syndicat mixte de l'Ardèche Méridionale - Lablachère (Ardèche),-32,Syndicat mixte,44.4602290219,4.21397084394,Lablachère,Ardèche
104,D131157,jf00134742.html,Rapport d'observations définitives,27/05/2013,CRC Auvergne Rhône-Alpes,Commune - Nyons - Nyons (Drôme),-216,Commune,44.3564879814,5.12880832,Nyons,Drôme
105,13- 510 ,jf00134751.html,Rapport d'observations définitives,17/05/2013,CRC Alsace,Région - Conseil regional d'Alsace - Strasbourg (Bas-Rhin),-28,Région,48.5712679849,7.767526795169999,Strasbourg,Bas-Rhin
106,2007-2013,jf00134752.html,Rapport d'observations définitives,05/06/2013,CRC Basse-Normandie Haute-Normandie,Institution sociale ou médico-sociale - Etablissement public départemental de Grugny - Grugny (Seine-Maritime),-55,Institution sociale ou médico-sociale,49.6181524638,1.10616826798,Grugny,Seine-Maritime
107,2006-2013,jf00134756.html,Rapport d'observations définitives,06/02/2013,CRC Basse-Normandie Haute-Normandie,Etablissement public local - Mission régionale pour l'innovation et l'action de développement économique(MIRIADE) - Caen (Calvados),162,Etablissement public local,49.1847936737,-0.369801713036,Caen,Calvados
108,,jf00134763.html,Rapport d'observations définitives,01/07/2013,CRC Aquitaine Poitou-Charentes,Association - Lous Petits Esberits - Villeneuve-de-Marsan (Landes),-87,Association,43.9059002211,-0.304063529784,Villeneuve-de-Marsan,Landes
109,,jf00134767.html,Rapport d'observations définitives,01/07/2013,CRC Aquitaine Poitou-Charentes,Société d'économie mixte - SEMITOUR PERIGORD - Périgueux (Dordogne),-315,Société d'économie mixte,45.191870487299994,0.711825549847,Périgueux,Dordogne
110,203-21,jf00134788.html,Rapport d'observations définitives,24/06/2013,CRC Bretagne,Commune - Betton - Betton (Ille-et-Vilaine),-50,Commune,48.18123604229999,-1.64589552684,Betton,Ille-et-Vilaine
111,201325,jf00134799.html,Rapport d'observations définitives,14/06/2013,CRC Bretagne,Commune - Lesneven - Lesneven (Finistère),217,Commune,48.5801251196,-4.31293757639,Lesneven,Finistère
112,LRR201305,jf00134804.html,Rapport d'observations définitives,06/06/2013,CRC Languedoc-Roussillon,Syndicat mixte - Syndicat mixte des Transports en commun de l'Hérault - Montpellier (Hérault),-305,Syndicat mixte,43.6134409138,3.86851657896,Montpellier,Hérault
113,,jf00134808.html,Rapport d'observations définitives,05/07/2013,CRC Aquitaine Poitou-Charentes,Services départementaux d'incendie et de secours - SDIS de la Charente-Maritime - Périgny (Charente-Maritime),-96,Services départementaux d'incendie et de secours,46.1574551352,-1.08886084864,Périgny,Charente-Maritime
114,CALR201301,jf00134842.html,Rapport d'observations définitives,10/01/2013,CRC Champagne-Ardenne Lorraine,"Etablissement public local d'enseignement - Lycée professionnel ""Marie Marvingt"" de Tomblaine - Tomblaine (Meurthe-et-Moselle)",-37,Etablissement public local d'enseignement,48.6859541528,6.22129283302,Tomblaine,Meurthe-et-Moselle
115,CALR201304,jf00134845.html,Rapport d'observations définitives,30/01/2013,CRC Champagne-Ardenne Lorraine,Etablissement hospitalier public - Hôpital blocal de Bussang - Bussang (Vosges),-193,Etablissement hospitalier public,47.89130249270001,6.876636477510001,Bussang,Vosges
116,CALR201310,jf00134847.html,Rapport d'observations définitives,31/01/2013,CRC Champagne-Ardenne Lorraine,Etablissement hospitalier public - Hôpital local de Le Thillot - Le Thillot (Vosges),-198,Etablissement hospitalier public,47.8795029889,6.76927057164,Le Thillot,Vosges
117,1530,jf00134913.html,Rapport d'observations définitives,08/07/2013,CRC Provence-Alpes-Côte d'Azur,Régie - Regie departementale des transports des Bouches du Rhone (RDT 13) - Aix-en-Provence (Bouches-du-Rhône),-39,Régie,43.5360708378,5.3985744458200005,Aix-en-Provence,Bouches-du-Rhône
118,13- 745 ,jf00134951.html,Rapport d'observations définitives,06/07/2013,CRC Alsace,Commune - Commune de Niederbronn-les-Bains - Niederbronn-les-Bains (Bas-Rhin),-29,Commune,48.9638157112,7.63986093383,Niederbronn-les-Bains,Bas-Rhin
119,2013-213,jf00134994.html,Rapport d'observations définitives,07/06/2013,CRC Pays de la Loire,Etablissement public local d'enseignement - Lycée polyvalent les Bourdonnières - Nantes (Loire-Atlantique),-72,Etablissement public local d'enseignement,47.2316356767,-1.54831008605,Nantes,Loire-Atlantique
120,2013-019,jf00135100.html,Rapport d'observations définitives,30/04/2013,CRC Midi-Pyrénées,Services départementaux d'incendie et de secours - SDIS du Lot - Cahors (Lot),-85,Services départementaux d'incendie et de secours,44.4507370916,1.44075837848,Cahors,Lot
121,2013-17,jf00135108.html,Rapport d'observations définitives,17/05/2013,CRC Bretagne,Commune - Gahard - Gahard (Ille-et-Vilaine),-15,Commune,48.2882041864,-1.5274628579499998,Gahard,Ille-et-Vilaine
122,CALR201305,jf00135139.html,Rapport d'observations définitives,30/01/2013,CRC Champagne-Ardenne Lorraine,Etablissement hospitalier public - Hôpital local de Châtel-sur-Moselle - Châtel-sur-Moselle (Vosges),-182,Etablissement hospitalier public,48.319852392799994,6.400679687819999,Châtel-sur-Moselle,Vosges
123,CALR201315,jf00135141.html,Rapport d'observations définitives,27/02/2013,CRC Champagne-Ardenne Lorraine,Commune - Commune d'Uckange - Uckange (Moselle),-10,Commune,49.30587670550001,6.14931216735,Uckange,Moselle
124,CALR201315,jf00135142.html,Rapport d'observations définitives,27/02/2013,CRC Champagne-Ardenne Lorraine,Commune - Commune d'Uckange - Uckange (Moselle),-10,Commune,49.30587670550001,6.14931216735,Uckange,Moselle
125,564,jf00135149.html,Rapport d'observations définitives,03/06/2013,CRC Nord-Pas-de-Calais Picardie,"Syndicat intercommunal - SIVU pour la création et la gestion des structures d'accueil ""petite enfance"" de Saint-Etienne-au-Mont - Saint-Etienne-au-Mont (Pas-de-Calais)",-68,Syndicat intercommunal,50.665481027700004,1.6018617047,Saint-Etienne-au-Mont,Pas-de-Calais
126,570,jf00135157.html,Rapport d'observations définitives,12/07/2013,CRC Nord-Pas-de-Calais Picardie,Région - Région Nord-Pas-de-Calais  - Lille (Nord),18,Région,50.631718316800004,3.0478327231200004,Lille,Nord
127,570,jf00135159.html,Rapport d'observations définitives,12/07/2013,CRC Nord-Pas-de-Calais Picardie,Région - Région Nord-Pas-de-Calais  - Lille (Nord),18,Région,50.631718316800004,3.0478327231200004,Lille,Nord
128,2013-20,jf00135163.html,Rapport d'observations définitives,21/05/2013,CRC Bretagne,Syndicat mixte - Syndicat mixte pour le développement et l'aménagement du port de pêche de Lorient-Keroman - Vannes (Morbihan),-30,Syndicat mixte,47.6597493766,-2.75714329498,Vannes,Morbihan
129,,jf00135178.html,Rapport d'observations définitives,15/07/2013,CRC Aquitaine Poitou-Charentes,Société d'économie mixte - Société d'économie mixte de l'hôtel du Palais de Biarritz (SOCOMIX) - Biarritz (Pyrénées-Atlantiques),-37,Société d'économie mixte,43.469584722700006,-1.55309857519,Biarritz,Pyrénées-Atlantiques
130,CALR201331,jf00135186.html,Rapport d'observations définitives,28/06/2013,CRC Champagne-Ardenne Lorraine,Commune - Commune de Maizières-lès-Metz - Maizières-lès-Metz (Moselle),-17,Commune,49.208517522799994,6.15614048077,Maizières-lès-Metz,Moselle
131,CALR201303,jf00135196.html,Rapport d'observations définitives,29/01/2013,CRC Champagne-Ardenne Lorraine,Région - Région Champagne-Ardenne - Châlons-en-Champagne (Marne),30,Région,48.9640892125,4.3788353972500005,Châlons-en-Champagne,Marne
132,CALR201320,jf00135203.html,Rapport d'observations définitives,23/05/2013,CRC Champagne-Ardenne Lorraine,Communauté de communes - Communauté de communes du pays Sedanais - Sedan (Ardennes),-9,Communauté de communes,49.697058875,4.9298505244,Sedan,Ardennes
133,,jf00135253.html,Rapport d'observations définitives,22/07/2013,CRC Aquitaine Poitou-Charentes,Centre hospitalier spécialisé - Centre hospitalier Charles Perrens - Bordeaux (Gironde),-96,Centre hospitalier spécialisé,44.8572445351,-0.57369678116,Bordeaux,Gironde
134,,jf00135254.html,Rapport d'observations définitives,22/07/2013,CRC Aquitaine Poitou-Charentes,Centre de gestion de la fonction publique territoriale - Centre de gestion de la fonction publique territoriale de Lot-et-Garonne - Agen (Lot-et-Garonne),-50,Centre de gestion de la fonction publique territoriale,44.202813910399996,0.625583928763,Agen,Lot-et-Garonne
135,,jf00135255.html,Rapport d'observations définitives,22/07/2013,CRC Aquitaine Poitou-Charentes,Commune - Bayonne -  (Pyrénées-Atlantiques),118,Commune,43.492949,-1.474841,Bayonne,Pyrénées-Atlantiques
136,,jf00135276.html,Rapport d'observations définitives,29/07/2013,CRC Aquitaine Poitou-Charentes,Société d'économie mixte - Société d'économie mixte du Périgord (SEMIPER) - Coulounieix-Chamiers (Dordogne),-182,Société d'économie mixte,45.1650799772,0.6875924936390001,Coulounieix-Chamiers,Dordogne
137,,jf00135327.html,Rapport d'observations définitives,07/08/2013,CRC Aquitaine Poitou-Charentes,Commune - Saint-Michel-de-Rieufret -  (Gironde),10,Commune,44.622145,-0.4336060000000001,Saint-Michel-de-Rieufret,Gironde
138,D131803,jf00135457.html,Rapport d'observations définitives,22/07/2013,CRC Auvergne Rhône-Alpes,Commune - Chaudes-Aigues - CHAUDES-AIGUES (Cantal),34,Commune,44.848937782,2.9982305989,CHAUDES-AIGUES,Cantal
139,,jf00135489.html,Rapport d'observations définitives,21/08/2013,CRC Aquitaine Poitou-Charentes,Commune - Oloron Sainte-Marie -  (Pyrénées-Atlantiques),23,Commune,43.194413,-0.6052919999999999,Oloron-Sainte-Marie,Pyrénées-Atlantiques
140,,jf00135494.html,Rapport d'observations définitives,21/08/2013,CRC Aquitaine Poitou-Charentes,Département - Département de la Charente-Maritime - La Rochelle (Charente-Maritime),2,Département,46.16206439720001,-1.1746570283600002,La Rochelle,Charente-Maritime
141,2013-31,jf00135785.html,Rapport d'observations définitives,23/07/2013,CRC Bretagne,Commune - Commune de Saint-Aubin d'Aubigné - Saint-Aubin d'Aubigne (Ille-et-Vilaine),-106,Commune,48.263171,-1.606188,Saint-Aubin d'Aubigne,Ille-et-Vilaine
142,,jf00135807.html,Rapport d'observations définitives,03/09/2013,CRC Aquitaine Poitou-Charentes,Association - Association d'Aide Familiale et Sociale (AAFS) - Anglet (Pyrénées-Atlantiques),-8,Association,43.4917846595,-1.5162337337099998,Anglet,Pyrénées-Atlantiques
143,2013-27,jf00135856.html,Rapport d'observations définitives,08/07/2013,CRC Bretagne,Commune - Janzé - Janzé (Ille-et-Vilaine),-160,Commune,47.9428950804,-1.50038718382,Janzé,Ille-et-Vilaine
144,,jf00135882.html,Rapport d'observations définitives,06/09/2013,CRC Aquitaine Poitou-Charentes,Commune - Navarrenx -  (Pyrénées-Atlantiques),40,Commune,43.322255,-0.761008,Navarrenx,Pyrénées-Atlantiques
145,,jf00135885.html,Rapport d'observations définitives,06/09/2013,CRC Aquitaine Poitou-Charentes,Commune - Saint-Jean-de-Marsacq -  (Landes),-17,Commune,43.625691,-1.256499,Saint-Jean-de-Marsacq,Landes
146,,jf00135899.html,Rapport d'observations définitives,06/09/2013,CRC Aquitaine Poitou-Charentes,Commune - Saint-Vincent-de-Tyrosse -  (Landes),5,Commune,43.6587109,-1.301187,Saint-Vincent-de-Tyrosse,Landes
147,,jf00135901.html,Rapport d'observations définitives,06/09/2013,CRC Aquitaine Poitou-Charentes,Commune - Castets -  (Landes),5,Commune,43.881922,-1.145308,Castets,Landes
148,,jf00135907.html,Rapport d'observations définitives,10/09/2013,CRC Aquitaine Poitou-Charentes,Commune - Ribérac -  (Dordogne),-47,Commune,45.246394,0.33765100000000003,Ribérac,Dordogne
149,13-0088 R,jf00135952.html,Rapport d'observations définitives,15/07/2013,CRC Ile-de-France,Commune - Chaville -  (Hauts-de-Seine),-8,Commune,48.808026,2.192418,Chaville,Hauts-de-Seine
150,NPR201323,jf00135962.html,Rapport d'observations définitives,08/07/2013,CRC Nord-Pas-de-Calais Picardie,Association - Association Innov'Enfance - Lille (Nord),-62,Association,50.631718316800004,3.0478327231200004,Lille,Nord
151,13 - 1021,jf00136037.html,Rapport d'observations définitives,12/08/2013,CRC Alsace,"Centre de gestion de la fonction publique territoriale - Centre de gestion de la fonction publique territoriale du Haut-Rhin
 - Colmar (Haut-Rhin)",-135,Centre de gestion de la fonction publique territoriale,48.1099405789,7.38468690323,Colmar,Haut-Rhin
152,LRR201306,jf00136038.html,Rapport d'observations définitives,01/07/2013,CRC Languedoc-Roussillon,Département - Conseil général de l'Aude - Carcassonne (Aude),5,Département,43.2093798444,2.34398855385,Carcassonne,Aude
153,2013- 722,jf00136044.html,Rapport d'observations définitives,02/07/2013,CRC Alsace,Commune - Commune de Brumath - Brumath (Bas-Rhin),-68,Commune,48.7204656106,7.71740193625,Brumath,Bas-Rhin
154,KAR D131888 KJF,jf00136093.html,Rapport d'observations définitives,01/08/2013,CRC Auvergne Rhône-Alpes,Société d'économie mixte - Société de gestion du parc des expositions de l'Ain (SOGEPEA) - Bourg-en-Bresse (Ain),-95,Société d'économie mixte,46.2051520382,5.24602125501,Bourg-en-Bresse,Ain
155,D131707,jf00136120.html,Rapport d'observations définitives,12/07/2013,CRC Auvergne Rhône-Alpes,Centre communal d'action sociale - Centre communal d'action sociale d'Echirolles - ECHIROLLES (Isère),-287,Centre communal d'action sociale,45.1471647181,5.715356001769999,ECHIROLLES,Isère
156,KAR D131924 KJF,jf00136142.html,Rapport d'observations définitives,02/08/2013,CRC Auvergne Rhône-Alpes,Etablissement hospitalier public - Centre hospitalier de Crest - Crest (Drôme),-287,Etablissement hospitalier public,44.73356659069999,5.0221758413,Crest,Drôme
157,KAR D132217 KJF,jf00136150.html,Rapport d'observations définitives,02/09/2013,CRC Auvergne Rhône-Alpes,Société d'économie mixte - Société thermale de Chaudes-Aigues SAEM CALEDEN - CHAUDES-AIGUES (Cantal),-5,Société d'économie mixte,44.848937782,2.9982305989,CHAUDES-AIGUES,Cantal
158,13-0123 R,jf00136163.html,Rapport d'observations définitives,06/09/2013,CRC Ile-de-France,Commune - Nogent-sur-Marne  -  (Val-de-Marne),-60,Commune,48.83763099999999,2.4816990000000003,Nogent-sur-Marne,Val-de-Marne
159,1787,jf00136296.html,Rapport d'observations définitives,27/08/2013,CRC Provence-Alpes-Côte d'Azur,Etablissement public de coopération culturelle - Opéra Toulon Provence Méditerranée  - Toulon (Var),-151,Etablissement public de coopération culturelle,43.1361589728,5.932396342490001,Toulon,Var
160,2013-28,jf00136306.html,Rapport d'observations définitives,09/07/2013,CRC Bretagne,Commune - Trégunc - Trégunc (Finistère),67,Commune,47.8380684896,-3.8408529946,Trégunc,Finistère
161,CALR201307,jf00136307.html,Rapport d'observations définitives,30/01/2013,CRC Champagne-Ardenne Lorraine,Etablissement public local - Hôpital local de Fraize - Fraize (Vosges),-201,Etablissement public local,48.186317725500004,7.018010712100001,Fraize,Vosges
162,CALR201327,jf00136313.html,Rapport d'observations définitives,13/06/2013,CRC Champagne-Ardenne Lorraine,Commune - Commune de Chaumont - Chaumont (Haute-Marne),-51,Commune,48.0980144211,5.14070044621,Chaumont,Haute-Marne
163,,jf00136317.html,Rapport d'observations définitives,10/09/2013,CRC Provence-Alpes-Côte d'Azur,Communauté d'agglomération - Communaute d'agglomération et Communauté urbaine de Nice Côte d'Azur - Nice (Alpes-Maritimes),-65,Communauté d'agglomération,43.711999266099994,7.23826889465,Nice,Alpes-Maritimes
164,2008-2013,jf00136321.html,Rapport d'observations définitives,30/05/2013,CRC Basse-Normandie Haute-Normandie,Département - Departement du Calvados - Caen (Calvados),-125,Département,49.1847936737,-0.369801713036,Caen,Calvados
165,2006-2013,jf00136324.html,Rapport d'observations définitives,23/08/2013,CRC Basse-Normandie Haute-Normandie,Commune - Gournay-en-Bray -  (Seine-Maritime),-120,Commune,49.48266160000001,1.7245633000000002,Gournay-en-Bray,Seine-Maritime
166,ROD 0580,jf00136332.html,Rapport d'observations définitives,10/09/2013,CRC Nord-Pas-de-Calais Picardie,Commune - Commune de Lens -  (Pas-de-Calais),-62,Commune,50.4145771,3.0657695,Rue de la Commune de Paris,Pas-de-Calais
167,13-0138 R,jf00136334.html,Rapport d'observations définitives,04/09/2013,CRC Ile-de-France,Région - Gestion des ressources humaines de la région Ile-de-France -  (Paris),-35,Région,48.856614,2.3522218999999995,Paris,Paris
168,2013018,jf00136349.html,Rapport d'observations définitives,25/07/2013,CRC Centre Limousin,Département - Conseil General - Tours (Indre-et-Loire),-29,Département,47.398638228100005,0.696526376417,Tours,Indre-et-Loire
169,2013019,jf00136352.html,Rapport d'observations définitives,25/07/2013,CRC Centre Limousin,Société d'économie mixte - société d'économie mixte Société d'Equipement de la Touraine (SET) - Tours (Indre-et-Loire),-28,Société d'économie mixte,47.398638228100005,0.696526376417,Tours,Indre-et-Loire
170,13- 983,jf00136402.html,Rapport d'observations définitives,07/08/2013,CRC Alsace,Commune - Commune de Munster - Munster (Haut-Rhin),31,Commune,48.0448514207,7.14149744282,Munster,Haut-Rhin
171,2013022,jf00136408.html,Rapport d'observations définitives,27/08/2013,CRC Centre Limousin,Commune - Commune de Brive-la-Gaillarde - Brive-la-Gaillarde (Corrèze),20,Commune,45.143583066400005,1.51936836063,Brive-la-Gaillarde,Corrèze
172,2013020,jf00136410.html,Rapport d'observations définitives,10/07/2013,CRC Centre Limousin,Centre communal d'action sociale - Centre intercommunal d'action sociale du Blaisois - Blois (Loir-et-Cher),-14,Centre communal d'action sociale,47.5817013938,1.30625551583,Blois,Loir-et-Cher
173,2013021,jf00136411.html,Rapport d'observations définitives,14/08/2013,CRC Centre Limousin,Association - Association Montargoise d'Animation  - Montargis (Loiret),13,Association,47.9988427684,2.73588922015,Montargis,Loiret
174,,jf00136443.html,Rapport d'observations définitives,10/09/2013,CRC Provence-Alpes-Côte d'Azur,Commune - Gap - Gap (Hautes-Alpes),-28,Commune,44.5798600596,6.06486052138,Gap,Hautes-Alpes
175,,jf00136445.html,Rapport d'observations définitives,27/08/2013,CRC Provence-Alpes-Côte d'Azur,Commune - Aubagne - Aubagne (Bouches-du-Rhône),-553,Commune,43.2934843764,5.56331273477,Aubagne,Bouches-du-Rhône
176,2013023,jf00136447.html,Rapport d'observations définitives,02/09/2013,CRC Centre Limousin,Commune - Commune d'Amilly - Amilly (Loiret),12,Commune,47.9867116879,2.78217519303,Amilly,Loiret
177,13-0103 R,jf00136501.html,Rapport d'observations définitives,10/09/2013,CRC Ile-de-France,Commune - Montgeron -  (Essonne),26,Commune,48.703859,2.4604529,Montgeron,Essonne
178,D131859,jf00136528.html,Rapport d'observations définitives,25/07/2013,CRC Auvergne Rhône-Alpes,Commune - Belley - Belley (Ain),87,Commune,45.7494697806,5.6841236552600005,Belley,Ain
179,D132,jf00136535.html,Rapport d'observations définitives,02/09/2013,CRC Auvergne Rhône-Alpes,Commune - seyssinet-pariset - seyssinet-pariset (Isère),24,Commune,45.1731193462,5.66971556945,seyssinet-pariset,Isère
180,D131799,jf00136542.html,Rapport d'observations définitives,22/07/2013,CRC Auvergne Rhône-Alpes,Communauté de communes - Communaute de communes du Pays de Gex (CCPG) - Gex (Ain),35,Communauté de communes,46.34718917470001,6.0465055556800005,Gex,Ain
181,2013-024,jf00136558.html,Rapport d'observations définitives,31/07/2013,CRC Midi-Pyrénées,Communauté de communes - Communauté de communes du Pays d'Olmes - Lavelanet (Ariège),57,Communauté de communes,42.9336867312,1.84586953504,Lavelanet,Ariège
182,2013-30,jf00136563.html,Rapport d'observations définitives,17/07/2013,CRC Bretagne,Communauté d'agglomération - Saint-Malo Agglomération - Cancale (Ille-et-Vilaine),-38,Communauté d'agglomération,48.6835209896,-1.8650827351,Cancale,Ille-et-Vilaine
183,2013-218,jf00136569.html,Rapport d'observations définitives,05/07/2013,CRC Pays de la Loire,Département - Conseil général de la Mayenne - Enquête de la politique d'accueil de la petite enfance - Laval (Mayenne),59,Département,48.3061239,-0.620935,Enquête de la politique d'accueil de la petite enfance,Mayenne
184,2013026,jf00136580.html,Rapport d'observations définitives,08/07/2013,CRC Centre Limousin,Syndicat d'électrification - Syndicat electrique intercommunal du Pays chartrain (SEIPC) - Lucé (Eure-et-Loir),-58,Syndicat d'électrification,48.434779098,1.4527756965399998,Lucé,Eure-et-Loir
185,2013-26,jf00136582.html,Rapport d'observations définitives,08/07/2013,CRC Bretagne,Commune - Guer - Guer (Morbihan),191,Commune,47.907332868900006,-2.12921667557,Guer,Morbihan
186,D132224,jf00136595.html,Rapport d'observations définitives,30/08/2013,CRC Auvergne Rhône-Alpes,Services départementaux d'incendie et de secours - service départemental d incendie et de secours de la Drôme - Valence (Drôme),-81,Services départementaux d'incendie et de secours,44.9229811667,4.91444013136,Valence,Drôme
187,27,jf00136700.html,Rapport d'observations définitives,12/08/2013,CRC Centre Limousin,Commune - Mondoubleau - Mondoubleau (Loir-et-Cher),9,Commune,47.986730378400004,0.895813338933,Mondoubleau,Loir-et-Cher
188,2008-2013,jf00136709.html,Rapport d'observations définitives,04/09/2013,CRC Basse-Normandie Haute-Normandie,Etablissement hospitalier public - Centre hospitalier intercommunal Eure-Seine - Evreux (Eure),-203,Etablissement hospitalier public,49.02015421,1.14164412464,Evreux,Eure
189,2013-38,jf00136711.html,Rapport d'observations définitives,28/08/2013,CRC Bretagne,Commune - Douarnenez - Douarnenez (Finistère),50,Commune,48.080652655600005,-4.32784220122,Douarnenez,Finistère
190,,jf00136732.html,Rapport d'observations définitives,08/10/2013,CRC Aquitaine Poitou-Charentes,Commune - Bayonne -  (Pyrénées-Atlantiques),15,Commune,43.492949,-1.474841,Bayonne,Pyrénées-Atlantiques
191,CALR201316,jf00136760.html,Rapport d'observations définitives,18/04/2013,CRC Champagne-Ardenne Lorraine,Chambre de commerce et d'industrie - Reims Management school (RMS) - Reims (Marne),-72,Chambre de commerce et d'industrie,49.2514906066,4.0402302322,Reims,Marne
192,,jf00136763.html,Rapport d'observations définitives,18/04/2013,CRC Champagne-Ardenne Lorraine,"Société d'économie mixte - Société d'économie mixte ""Agencia"" - Reims (Marne)",-11,Société d'économie mixte,49.2514906066,4.0402302322,Reims,Marne
193,CALR201330,jf00136764.html,Rapport d'observations définitives,27/06/2013,CRC Champagne-Ardenne Lorraine,Commune - Commune de Gandrange - Gandrange (Moselle),28,Commune,49.2734111238,6.13350555493,Gandrange,Moselle
194,CALR201332,jf00136768.html,Rapport d'observations définitives,01/07/2013,CRC Champagne-Ardenne Lorraine,Société d'économie mixte - Société immobilière et d'aménagement du Barsuraubois et de l'Aube (SIABA) - Troyes (Aube),-19,Société d'économie mixte,48.296709963699996,4.07827967525,Troyes,Aube
195,2013-35,jf00136769.html,Rapport d'observations définitives,27/08/2013,CRC Bretagne,Commune - Ploemeur - Ploemeur (Morbihan),-15,Commune,47.7325584986,-3.44178815745,Ploemeur,Morbihan
196,2013-34,jf00136871.html,Rapport d'observations définitives,26/08/2013,CRC Bretagne,Commune - Lorient - Lorient (Morbihan),-56,Commune,47.75004869470001,-3.37823200917,Lorient,Morbihan
197,2013-029,jf00136909.html,Rapport d'observations définitives,29/05/2013,CRC Midi-Pyrénées,Syndicat mixte - Syndicat mixte de traitement et de ramassage des ordures ménagères des cantons Centre et Nord de Toulouse (SITROM) - Montberon (Haute-Garonne),56,Syndicat mixte,43.720310734399995,1.48894998415,Montberon,Haute-Garonne
198,D132345,jf00136911.html,Rapport d'observations définitives,13/09/2013,CRC Auvergne Rhône-Alpes,Etablissement hospitalier public - Centre hospitalier universitaire de Clermont-Ferrand - Clermont-Ferrand (Puy-de-Dôme),-292,Etablissement hospitalier public,45.7856492991,3.11554542903,Clermont-Ferrand,Puy-de-Dôme
199,2013028,jf00136970.html,Rapport d'observations définitives,05/08/2013,CRC Centre Limousin,Etablissement hospitalier public - Centre hospitalier de Brive-la-Gaillarde - Brive-la-Gaillarde (Corrèze),-75,Etablissement hospitalier public,45.143583066400005,1.51936836063,Brive-la-Gaillarde,Corrèze
200,D131285,jf00137023.html,Rapport d'observations définitives,31/05/2013,CRC Auvergne Rhône-Alpes,Syndicat intercommunal - syndicat intercommunal d'accueil de l'enfance - Archamps (Haute-Savoie),-26,Syndicat intercommunal,46.122228211499994,6.13971386615,Archamps,Haute-Savoie
201,2013-35,jf00137026.html,Rapport d'observations définitives,12/07/2013,CRC Auvergne Rhône-Alpes,Commune - Villefontaine - Villefontaine (Isère),-46,Commune,45.6136289454,5.1554767335500005,Villefontaine,Isère
202,D132227,jf00137028.html,Rapport d'observations définitives,02/09/2013,CRC Auvergne Rhône-Alpes,Services départementaux d'incendie et de secours - Services départementaux d'incendie et de secours de l'Isère - Fontaine (Isère),-81,Services départementaux d'incendie et de secours,45.193050248599995,5.67763066542,Fontaine,Isère
203,13-ROD2-DP-28,jf00137030.html,Rapport d'observations définitives,24/09/2013,CRC Bourgogne Franche-Comté,"Etablissement hospitalier public - Centre hospitalier Val de Saône ""Pierre Vitter""  - Gray (Haute-Saône)",-161,Etablissement hospitalier public,47.4320889937,5.61070658545,Gray,Haute-Saône
204,13- 1025,jf00137032.html,Rapport d'observations définitives,19/08/2013,CRC Alsace,Département - Département du Haut-Rhin - Colmar (Haut-Rhin),58,Département,48.1099405789,7.38468690323,Colmar,Haut-Rhin
205,13-  1186  ,jf00137039.html,Rapport d'observations définitives,01/10/2013,CRC Alsace,Communauté de communes - Communaute de communes de la region de Brumath - Brumath (Bas-Rhin),-119,Communauté de communes,48.7204656106,7.71740193625,Brumath,Bas-Rhin
206,,jf00137045.html,Rapport d'observations définitives,14/08/2013,CRC Nord-Pas-de-Calais Picardie,Département - Département du Pas-de-Calais -  (Pas-de-Calais),-33,Département,50.95129000000001,1.858686,Calais,Pas-de-Calais
207,2013-41,jf00137056.html,Rapport d'observations définitives,23/09/2013,CRC Bretagne,Commune - Rosporden - Rosporden (Finistère),292,Commune,47.9583041483,-3.80153477736,Rosporden,Finistère
208,2013-40,jf00137076.html,Rapport d'observations définitives,12/09/2013,CRC Bretagne,Commune - Saint-Brieuc - Saint-Brieuc (Côtes-d'Armor),-64,Commune,48.514980605299996,-2.76154552773,Saint-Brieuc,Côtes-d'Armor
209,,jf00137086.html,Rapport d'observations définitives,21/10/2013,CRC Aquitaine Poitou-Charentes,Commune - Barbaste -  (Lot-et-Garonne),-2,Commune,44.170718,0.287058,Barbaste,Lot-et-Garonne
210,2013030,jf00137094.html,Rapport d'observations définitives,30/09/2013,CRC Centre Limousin,Etablissement hospitalier public - CENTRE HOSPITALIER DE CHARTRES - Chartres (Eure-et-Loir),-151,Etablissement hospitalier public,48.4471464884,1.50570610616,Chartres,Eure-et-Loir
211,2013-224,jf00137122.html,Rapport d'observations définitives,06/09/2013,CRC Pays de la Loire,Office public de l'habitat - Maine-et-Loire - Angers (Maine-et-Loire),-11,Office public de l'habitat,47.476837416,-0.556125995444,Angers,Maine-et-Loire
212,2013-36,jf00137123.html,Rapport d'observations définitives,27/08/2013,CRC Bretagne,Centre communal d'action sociale - Centre communal d'action sociale de Ploemeur - Ploemeur (Morbihan),-31,Centre communal d'action sociale,47.7325584986,-3.44178815745,Ploemeur,Morbihan
213,2013-44,jf00137166.html,Rapport d'observations définitives,24/10/2013,CRC Bretagne,Etablissement hospitalier public - Etablissement public de santé mentale Etienne Gourmelen - Quimper (Finistère),-244,Etablissement hospitalier public,47.9971425162,-4.0911194445499985,Quimper,Finistère
214,,jf00137172.html,Rapport d'observations définitives,25/10/2013,CRC Aquitaine Poitou-Charentes,Commune - Benquet -  (Landes),30,Commune,43.829396,-0.5010209999999999,Benquet,Landes
215,,jf00137173.html,Rapport d'observations définitives,25/10/2013,CRC Aquitaine Poitou-Charentes,Région - Région Aquitaine - Bordeaux (Gironde),64,Région,44.8572445351,-0.57369678116,Bordeaux,Gironde
216,CALR201326,jf00137186.html,Rapport d'observations définitives,13/06/2013,CRC Champagne-Ardenne Lorraine,Communauté de communes - Communauté de communes du Pays Orne-Moselle - Rombas (Moselle),-54,Communauté de communes,49.244066442299996,6.0882082340600014,Rombas,Moselle
217,CALR201329,jf00137188.html,Rapport d'observations définitives,21/06/2013,CRC Champagne-Ardenne Lorraine,Commune - Commune de Mont-Saint-Martin - Mont-Saint-Martin (Meurthe-et-Moselle),-40,Commune,49.545958518999996,5.77946566153,Mont-Saint-Martin,Meurthe-et-Moselle
218,CALR201306,jf00137189.html,Rapport d'observations définitives,30/01/2013,CRC Champagne-Ardenne Lorraine,Etablissement hospitalier public - Hôpital local de Darney - Darney (Vosges),-227,Etablissement hospitalier public,48.0781497355,6.05418895113,Darney,Vosges
219,CALR201314,jf00137191.html,Rapport d'observations définitives,31/01/2013,CRC Champagne-Ardenne Lorraine,Etablissement hospitalier public - Hôpital local de Mirecourt - Mirecourt (Vosges),-230,Etablissement hospitalier public,48.2935312144,6.12032421472,Mirecourt,Vosges
220,,jf00137197.html,Rapport d'observations définitives,31/10/2013,CRC Provence-Alpes-Côte d'Azur,Commune - Commune de Saint-Laurent-du-Var - Saint-Laurent-du-Var (Alpes-Maritimes),-282,Commune,43.6859625772,7.18218791815,Saint-Laurent-du-Var,Alpes-Maritimes
221,,jf00137212.html,Rapport d'observations définitives,18/10/2013,CRC Basse-Normandie Haute-Normandie,Communauté de communes - Communauté de communes du Pays granvillais - Granville (Manche),-229,Communauté de communes,48.83270783720001,-1.56670866413,Granville,Manche
222,2013-227,jf00137240.html,Rapport d'observations définitives,13/09/2013,CRC Pays de la Loire,"Maison de retraite - EHPAD ""Résidence le Bois Fleuri"" - Nort-sur-Erdre (Loire-Atlantique)",-23,Maison de retraite,47.447122285,-1.51824792558,Nort-sur-Erdre,Loire-Atlantique
223,,jf00137242.html,Rapport d'observations définitives,31/10/2013,CRC Aquitaine Poitou-Charentes,Communauté de communes - Communauté de communes de Lacq - Mourenx (Pyrénées-Atlantiques),-26,Communauté de communes,43.3740220656,-0.617464224458,Mourenx,Pyrénées-Atlantiques
224,,jf00137243.html,Rapport d'observations définitives,31/10/2013,CRC Aquitaine Poitou-Charentes,Département - Département des Pyrénées Atlantiques (mutation industrielle du bassin de Lacq) - Pau (Pyrénées-Atlantiques),-24,Département,43.320018977299995,-0.350337918181,Pau,Pyrénées-Atlantiques
225,,jf00137246.html,Rapport d'observations définitives,31/10/2013,CRC Aquitaine Poitou-Charentes,Communauté d'agglomération - Communauté d'agglomération de Pau-Pyrénées - Pau (Pyrénées-Atlantiques),-23,Communauté d'agglomération,43.320018977299995,-0.350337918181,Pau,Pyrénées-Atlantiques
226,,jf00137276.html,Rapport d'observations définitives,26/11/2013,CRC Provence-Alpes-Côte d'Azur,Commune - Eyguières - Eyguières (Bouches-du-Rhône),30,Commune,43.7025562953,5.01557705248,Eyguières,Bouches-du-Rhône
227,13-   1144   ,jf00137282.html,Rapport d'observations définitives,20/09/2013,CRC Alsace,Syndicat intercommunal - Syndicat Intercommunal de l'Opera National du Rhin - Strasbourg (Bas-Rhin),-326,Syndicat intercommunal,48.5712679849,7.767526795169999,Strasbourg,Bas-Rhin
228,13-  1120 ,jf00137285.html,Rapport d'observations définitives,18/09/2013,CRC Alsace,Région - Conseil regional d'Alsace - Strasbourg (Bas-Rhin),18,Région,48.5712679849,7.767526795169999,Strasbourg,Bas-Rhin
229,13- 1183 ,jf00137288.html,Rapport d'observations définitives,30/09/2013,CRC Alsace,Région - Conseil regional d'Alsace - Strasbourg (Bas-Rhin),-131,Région,48.5712679849,7.767526795169999,Strasbourg,Bas-Rhin
230,,jf00137290.html,Rapport d'observations définitives,05/11/2013,CRC Aquitaine Poitou-Charentes,Commune - Parthenay -  (Deux-Sèvres),-183,Commune,46.648825,-0.251441,Parthenay,Deux-Sèvres
231,13-0143 R,jf00137295.html,Rapport d'observations définitives,31/10/2013,CRC Ile-de-France,Département - Département de Paris (Gestion de l'aide sociale à  l'enfance) -  (Paris),83,Département,48.856614,2.3522218999999995,Paris,Paris
232,,jf00137296.html,Rapport d'observations définitives,07/11/2013,CRC Aquitaine Poitou-Charentes,Société d'économie mixte - société anonyme d'économie mixte locale (SAEML) SOREGIES - Poitiers (Vienne),-108,Société d'économie mixte,46.5839207726,0.359947653003,Poitiers,Vienne
233,,jf00137308.html,Rapport d'observations définitives,08/11/2013,CRC Aquitaine Poitou-Charentes,Groupement d'intérêt public - Groupement d'intérêt public (GIP) Chemparc - Lacq (Pyrénées-Atlantiques),-118,Groupement d'intérêt public,43.4215600876,-0.612163653339,Lacq,Pyrénées-Atlantiques
234,569,jf00137317.html,Rapport d'observations définitives,10/06/2013,CRC Nord-Pas-de-Calais Picardie,Département - Département du Nord : Accueil petite enfance - Lille (Nord),-116,Département,50.631718316800004,3.0478327231200004,Lille,Nord
235,D132374,jf00137322.html,Rapport d'observations définitives,13/09/2013,CRC Auvergne Rhône-Alpes,Centre communal d'action sociale - Centre communal d'action sociale de Saint-Etienne - Saint-Etienne (Loire),-34,Centre communal d'action sociale,45.4301235512,4.37913997076,Saint-Etienne,Loire
236,LRR201309,jf00137332.html,Rapport d'observations définitives,30/10/2013,CRC Languedoc-Roussillon,Communauté d'agglomération - Communauté d'agglomération du Grand Narbonne - Narbonne (Aude),-312,Communauté d'agglomération,43.16523998979999,3.02023868739,Narbonne,Aude
237,2013-37,jf00137337.html,Rapport d'observations définitives,27/08/2013,CRC Bretagne,Commune - Riantec - Riantec (Morbihan),-79,Commune,47.718436934799996,-3.3022129807700003,Riantec,Morbihan
238,557,jf00137343.html,Rapport d'observations définitives,10/06/2013,CRC Nord-Pas-de-Calais Picardie,Etablissement hospitalier public - Centre Hospitalier Universitaire d'Amiens  - Amiens (Somme),-166,Etablissement hospitalier public,49.900953218599994,2.29007445539,Amiens,Somme
239,,jf00137353.html,Rapport d'observations définitives,13/11/2013,CRC Aquitaine Poitou-Charentes,Chambre de commerce et d'industrie - Chambre de commerce et d'industrie (CCI) de la Dordogne - Périgueux (Dordogne),-416,Chambre de commerce et d'industrie,45.191870487299994,0.711825549847,Périgueux,Dordogne
240,CALR201309,jf00137368.html,Rapport d'observations définitives,31/01/2013,CRC Champagne-Ardenne Lorraine,Etablissement hospitalier public - Hopital local de Lamarche - Lamarche (Vosges),-256,Etablissement hospitalier public,48.062412478599995,5.777719598689999,Lamarche,Vosges
241,CALR201318,jf00137370.html,Rapport d'observations définitives,18/04/2013,CRC Champagne-Ardenne Lorraine,Société d'économie mixte - Societe d'economie mixte Reims Evénements - Reims (Marne),-56,Société d'économie mixte,49.2514906066,4.0402302322,Reims,Marne
242,CALR201321,jf00137371.html,Rapport d'observations définitives,23/05/2013,CRC Champagne-Ardenne Lorraine,Régie - Régie municipale d'électricité de Bitche - Bitche (Moselle),68,Régie,49.04734717189999,7.459601871,Bitche,Moselle
243,CALR201328,jf00137372.html,Rapport d'observations définitives,20/06/2013,CRC Champagne-Ardenne Lorraine,Commune - Commune d'Epernay - Epernay (Marne),-41,Commune,49.037000688999996,3.93144626202,Epernay,Marne
244,,jf00137394.html,Rapport d'observations définitives,15/11/2013,CRC Provence-Alpes-Côte d'Azur,Commune - Martigues - Martigues (Bouches-du-Rhône),-333,Commune,43.379892048900004,5.04945402314,Martigues,Bouches-du-Rhône
245,,jf00137406.html,Rapport d'observations définitives,15/11/2013,CRC Provence-Alpes-Côte d'Azur,Société d'économie mixte - SEM Martigues-Communication - Martigues (Bouches-du-Rhône),-23,Société d'économie mixte,43.379892048900004,5.04945402314,Martigues,Bouches-du-Rhône
246,,jf00137416.html,Rapport d'observations définitives,15/11/2013,CRC Provence-Alpes-Côte d'Azur,Société d'économie mixte - SEMOVIM  - Martigues (Bouches-du-Rhône),-93,Société d'économie mixte,43.379892048900004,5.04945402314,Martigues,Bouches-du-Rhône
247,,jf00137422.html,Rapport d'observations définitives,14/06/2013,CRC Auvergne Rhône-Alpes,Syndicat d'électrification - Syndicat départemental d'énergies de la Drôme - Valence (Drôme),-146,Syndicat d'électrification,44.9229811667,4.91444013136,Valence,Drôme
248,13-0168 R,jf00137430.html,Rapport d'observations définitives,05/11/2013,CRC Ile-de-France,Commune - Bois-Colombes -  (Hauts-de-Seine),-101,Commune,48.917402,2.269675,Bois-Colombes,Hauts-de-Seine
249,,jf00137438.html,Rapport d'observations définitives,18/11/2013,CRC Aquitaine Poitou-Charentes,Commune - Saint-Maixent-l'Ecole -  (Deux-Sèvres),-27,Commune,46.413165000000006,-0.20341,Saint-Maixent-l'École,Deux-Sèvres
250,D131089,jf00137466.html,Rapport d'observations définitives,17/05/2013,CRC Auvergne Rhône-Alpes,Département - Departement de la Drome - Valence (Drôme),-22,Département,44.9229811667,4.91444013136,Valence,Drôme
251,2013-42,jf00137480.html,Rapport d'observations définitives,07/10/2013,CRC Bretagne,Commune - Saint-Pol-de-Leon - Saint-Pol-de-Leon (Finistère),162,Commune,48.63026660000001,-3.987971,Saint-Pol-de-Leon,Finistère
252,CALR201319,jf00137507.html,Rapport d'observations définitives,13/05/2013,CRC Champagne-Ardenne Lorraine,Communauté urbaine - Communaute urbaine du grand Nancy (CUGN) - Nancy (Meurthe-et-Moselle),56,Communauté urbaine,48.6901995499,6.17588254434,Nancy,Meurthe-et-Moselle
253,,jf00137509.html,Rapport d'observations définitives,17/10/2013,CRC Basse-Normandie Haute-Normandie,Association - Calvados Stratégie - Caen (Calvados),-66,Association,49.1847936737,-0.369801713036,Caen,Calvados
254,13-  1255,jf00137517.html,Rapport d'observations définitives,21/10/2013,CRC Alsace,Commune - Commune de Saverne - Saverne (Bas-Rhin),-38,Commune,48.7402250066,7.342062381989999,Saverne,Bas-Rhin
255,LRR201310,jf00137537.html,Rapport d'observations définitives,15/11/2013,CRC Languedoc-Roussillon,Commune - Montpellier -  (Hérault),-54,Commune,43.610769,3.876716000000001,Montpellier,Hérault
256,CALR201323,jf00137562.html,Rapport d'observations définitives,30/05/2013,CRC Champagne-Ardenne Lorraine,Office public de l'habitat - Office public de l'habitat de Saint-Dizier - Saint-Dizier (Haute-Marne),-132,Office public de l'habitat,48.6280100668,4.94923523578,Saint-Dizier,Haute-Marne
257,,jf00137600.html,Rapport d'observations définitives,09/10/2013,CRC Basse-Normandie Haute-Normandie,"Syndicat intercommunal - Syndicat d'adduction d'eau potable, de production et de distribution du Plateau de Saint-André de l'Eure - Saint-André-de-L'Eure (Eure)",11,Syndicat intercommunal,48.9026554238,1.27831847187,Saint-André-de-L'Eure,Eure
258,2013-47,jf00137625.html,Rapport d'observations définitives,05/11/2013,CRC Bretagne,Commune - Domloup - Domloup (Ille-et-Vilaine),-69,Commune,48.067068804099996,-1.5428838018200002,Domloup,Ille-et-Vilaine
259,2013-52,jf00137629.html,Rapport d'observations définitives,12/11/2013,CRC Bretagne,Commune - Erquy - Erquy (Côtes-d'Armor),29,Commune,48.6194186311,-2.45858442922,Erquy,Côtes-d'Armor
260,2013033,jf00137641.html,Rapport d'observations définitives,12/11/2013,CRC Centre Limousin,Commune - Commune de Chartres - Chartres (Eure-et-Loir),-31,Commune,48.4471464884,1.50570610616,Chartres,Eure-et-Loir
261,2013-45,jf00137688.html,Rapport d'observations définitives,25/10/2013,CRC Bretagne,Commune - Saint-Georges-de-Chesne - Saint-Georges-de-Chesne (Ille-et-Vilaine),11,Commune,48.27356899999999,-1.291094,Saint-Georges-de-Chesne,Ille-et-Vilaine
262,,jf00137693.html,Rapport d'observations définitives,14/11/2013,CRC Basse-Normandie Haute-Normandie,Commune - Alençon -  (Orne),-7,Commune,48.432856,0.091266,Alençon,Orne
263,2013-46,jf00137694.html,Rapport d'observations définitives,25/10/2013,CRC Bretagne,Commune - Questembert - Questembert (Morbihan),-30,Commune,47.66380177470001,-2.43671076032,Questembert,Morbihan
264,,jf00137757.html,Rapport d'observations définitives,20/09/2013,CRC Basse-Normandie Haute-Normandie,Communauté urbaine - Communauté urbaine d'Alençon - Alençon (Orne),-30,Communauté urbaine,48.4318193082,0.0915406916107,Alençon,Orne
265,,jf00137763.html,Rapport d'observations définitives,04/10/2013,CRC Basse-Normandie Haute-Normandie,Communauté urbaine - Communaute urbaine de Cherbourg - Cherbourg-Octeville (Manche),-83,Communauté urbaine,49.633412156000006,-1.63390160204,Cherbourg-Octeville,Manche
266,2013034,jf00137785.html,Rapport d'observations définitives,28/10/2013,CRC Centre Limousin,Commune - Commune de Blois - Blois (Loir-et-Cher),-83,Commune,47.5817013938,1.30625551583,Blois,Loir-et-Cher
267,2013036,jf00137804.html,Rapport d'observations définitives,19/09/2013,CRC Centre Limousin,Etablissement public territorial - Etablissement public Loire - Orléans (Loiret),-231,Etablissement public territorial,47.8828634214,1.91610357477,Orléans,Loiret
268,13- 1 264 ,jf00137914.html,Rapport d'observations définitives,22/10/2013,CRC Alsace,Commune - Commune de Thann - Thann (Haut-Rhin),-25,Commune,47.8139111281,7.095024572330001,Thann,Haut-Rhin
269,2013-51,jf00137940.html,Rapport d'observations définitives,08/11/2013,CRC Bretagne,Commune - Guidel - Guidel (Morbihan),358,Commune,47.79400768510001,-3.49161886127,Guidel,Morbihan
270,,jf00137984.html,Rapport d'observations définitives,05/12/2013,CRC Aquitaine Poitou-Charentes,Etablissement hospitalier public - Centre Hospitalier de la Côte Basque - Bayonne (Pyrénées-Atlantiques),-221,Etablissement hospitalier public,43.492225401599995,-1.4660767435799995,Bayonne,Pyrénées-Atlantiques
271,nÂ° 2013-06,jf00137996.html,Rapport d'observations définitives,02/05/2013,CRC Bretagne,Communauté de communes - Communaute de communes de la Baie du Kernic - Cléder (Finistère),0,Communauté de communes,48.6605439147,-4.12447333857,Cléder,Finistère
272,nÂ° 2013-27,jf00137997.html,Rapport d'observations définitives,08/07/2013,CRC Bretagne,Commune - Janzé - Janzé (Ille-et-Vilaine),-60,Commune,47.9428950804,-1.50038718382,Janzé,Ille-et-Vilaine
273,D133103,jf00138015.html,Rapport d'observations définitives,20/11/2013,CRC Auvergne Rhône-Alpes,Communauté de communes - Communauté de commune du pays de Saint-Marcellin - Saint-Marcellin (Isère),-24,Communauté de communes,45.1534136901,5.31720171085,Saint-Marcellin,Isère
274,nÂ° 2013-18,jf00138035.html,Rapport d'observations définitives,17/05/2013,CRC Bretagne,Association - Association Palais du Grand Large - Saint-Malo (Ille-et-Vilaine),-3,Association,48.6400443482,-1.98060627256,Saint-Malo,Ille-et-Vilaine
275,13 ROD2 35,jf00138062.html,Rapport d'observations définitives,10/12/2013,CRC Bourgogne Franche-Comté,Centre hospitalier spécialisé - Centre hospitalier spécialisé d'Auxerre - Auxerre (Yonne),-1,Centre hospitalier spécialisé,47.793488225,3.58168281761,Auxerre,Yonne
276,2013-229,jf00138092.html,Rapport d'observations définitives,21/10/2013,CRC Pays de la Loire,Association - Théâtre Royal de Luxe - Nantes (Loire-Atlantique),1,Association,47.2316356767,-1.54831008605,Nantes,Loire-Atlantique
277,2013-31,jf00138101.html,Rapport d'observations définitives,09/10/2013,CRC Basse-Normandie Haute-Normandie,Syndicat intercommunal - Syndicat intercommunal de production et d'adduction d'eau potable de la région de Beuzeville (SIPAEP de Beuzeville) - BEUZEVILLE (Eure),21,Syndicat intercommunal,49.3380079083,0.34270671359800003,BEUZEVILLE,Eure
278,,jf00138169.html,Rapport d'observations définitives,20/09/2013,CRC Basse-Normandie Haute-Normandie,Communauté urbaine - Communaute urbaine d'Alençon - Alençon (Orne),-9,Communauté urbaine,48.4318193082,0.0915406916107,Alençon,Orne
279,,jf00138202.html,Rapport d'observations définitives,31/07/2013,CRC Basse-Normandie Haute-Normandie,Commune - Lisieux -  (Calvados),0,Commune,49.145922,0.227849,Lisieux,Calvados
280,,jf00138204.html,Rapport d'observations définitives,12/07/2013,CRC Basse-Normandie Haute-Normandie,Commune - Granville -  (Manche),-1,Commune,48.837579,-1.597302,Granville,Manche
281,,jf00138205.html,Rapport d'observations définitives,06/02/2013,CRC Basse-Normandie Haute-Normandie,Région - Région de Basse-Normandie  - Caen (Calvados),80,Région,49.1847936737,-0.369801713036,Caen,Calvados
282,D 133285,jf00138236.html,Rapport d'observations définitives,03/12/2013,CRC Auvergne Rhône-Alpes,Société d'économie mixte - Société d'économie mixte des Voies Férrées du Dauphiné - Grenoble (Isère),-835,Société d'économie mixte,45.1821215167,5.721330517519998,Grenoble,Isère
283,D133031,jf00138238.html,Rapport d'observations définitives,20/11/2013,CRC Auvergne Rhône-Alpes,Commune - Saint-Marcellin - Saint-Marcellin (Isère),8,Commune,45.1534136901,5.31720171085,Saint-Marcellin,Isère
284,,jf00138251.html,Rapport d'observations définitives,24/01/2013,CRC Basse-Normandie Haute-Normandie,Syndicat intercommunal - Syndicat intercommunal d'équipement d'Harfleur et de Gonfreville-L'Orcher (SIEHGO) - Gonfreville-L'Orcher (Seine-Maritime),7,Syndicat intercommunal,49.4860837457,0.221985693724,Gonfreville-L'Orcher,Seine-Maritime
285,,jf00138260.html,Rapport d'observations définitives,02/05/2013,CRC Basse-Normandie Haute-Normandie,Communauté de communes - Communaute de communes des Pieux - Les Pieux (Manche),30,Communauté de communes,49.5103059572,-1.82036292827,Les Pieux,Manche
286,598,jf00138304.html,Rapport d'observations définitives,06/12/2013,CRC Nord-Pas-de-Calais Picardie,Département - Département du Pas-de-Calais -  (Pas-de-Calais),-125,Département,50.95129000000001,1.858686,Calais,Pas-de-Calais
287,LRR201312,jf00138311.html,Rapport d'observations définitives,19/11/2013,CRC Languedoc-Roussillon,Communauté de communes - Communauté de communes Coeur de Lozère - Mende (Lozère),-83,Communauté de communes,44.529450859200004,3.48086881176,Mende,Lozère
288,2013038,jf00138313.html,Rapport d'observations définitives,08/10/2013,CRC Centre Limousin,Etablissement hospitalier public - Centre hospitalier de Blois - Blois (Loir-et-Cher),-370,Etablissement hospitalier public,47.5817013938,1.30625551583,Blois,Loir-et-Cher
289,LRR201314,jf00138315.html,Rapport d'observations définitives,10/12/2013,CRC Languedoc-Roussillon,Société d'économie mixte - Transports de l'agglomération de Montpellier (SAEML TAM) - Montpellier (Hérault),-505,Société d'économie mixte,43.6134409138,3.86851657896,Montpellier,Hérault
290,CALR201325,jf00138345.html,Rapport d'observations définitives,12/06/2013,CRC Champagne-Ardenne Lorraine,Etablissement hospitalier public - Centre Hospitalier Regional de Metz-Thionville - Metz (Moselle),-202,Etablissement hospitalier public,49.1081133279,6.1955245421,Metz,Moselle
291,CARLR201333,jf00138348.html,Rapport d'observations définitives,13/09/2013,CRC Champagne-Ardenne Lorraine,Foyer de l'enfance - Centre départemental de l'Enfance de la Moselle - Metz (Moselle),-75,Foyer de l'enfance,49.1081133279,6.1955245421,Metz,Moselle
292,CALR201339,jf00138349.html,Rapport d'observations définitives,29/10/2013,CRC Champagne-Ardenne Lorraine,Chambre de commerce et d'industrie - Chambre regionale de commerce et d'industrie de Lorraine - Nancy (Meurthe-et-Moselle),-18,Chambre de commerce et d'industrie,48.6901995499,6.17588254434,Nancy,Meurthe-et-Moselle
293,,jf00138387.html,Rapport d'observations définitives,10/12/2013,CRC Aquitaine Poitou-Charentes,Région - Région Aquitaine (mutation industrielle du bassin de Lacq) - Bordeaux (Gironde),-27,Région,44.8572445351,-0.57369678116,Bordeaux,Gironde
294,13- 1 431,jf00138477.html,Rapport d'observations définitives,16/12/2013,CRC Alsace,Société d'économie mixte - Société d'aménagement et d'équipement de la région de Strasbourg - Strasbourg (Bas-Rhin),-267,Société d'économie mixte,48.5712679849,7.767526795169999,Strasbourg,Bas-Rhin
295,2013-58,jf00138522.html,Rapport d'observations définitives,22/11/2013,CRC Bretagne,Association - Association amicale des conseillers généraux d'Ille-et-Vilaine - Rennes (Ille-et-Vilaine),-4,Association,48.1119791219,-1.6818644914399998,Rennes,Ille-et-Vilaine
296,2013-59,jf00138592.html,Rapport d'observations définitives,19/11/2013,CRC Bretagne,Association - Association amicale des conseillers généraux du Finistère - Quimper (Finistère),-43,Association,47.9971425162,-4.0911194445499985,Quimper,Finistère
297,,jf00138639.html,Rapport d'observations définitives,19/09/2013,CRC Midi-Pyrénées,Syndicat d'électrification - Syndicat departemental d'electricite de la Haute-Garonne - Toulouse (Haute-Garonne),-3,Syndicat d'électrification,43.5963814303,1.43167293364,Toulouse,Haute-Garonne
298,CALR201312,jf00138645.html,Rapport d'observations définitives,31/01/2013,CRC Champagne-Ardenne Lorraine,Etablissement hospitalier public - Senones - Senones (Vosges),-189,Etablissement hospitalier public,48.4067567692,6.9636413109,Senones,Vosges
299,,jf00138808.html,Rapport d'observations définitives,26/02/2013,CRC Auvergne Rhône-Alpes,Commune - Valence - Valence (Drôme),-10,Commune,44.9229811667,4.91444013136,Valence,Drôme
300,,jf00138822.html,Rapport d'observations définitives,15/11/2013,CRC Basse-Normandie Haute-Normandie,Communauté de communes - Communauté de communes du Canton de Gournay-en-Bray - Gournay-en-Bray (Seine-Maritime),-69,Communauté de communes,49.4798020531,1.71814645212,Gournay-en-Bray,Seine-Maritime
301,2013-233,jf00138909.html,Rapport d'observations définitives,02/12/2013,CRC Pays de la Loire,Région - Région des Pays de la Loire - Nantes (Loire-Atlantique),98,Région,47.2316356767,-1.54831008605,Nantes,Loire-Atlantique
302,2013-234,jf00138968.html,Rapport d'observations définitives,02/12/2013,CRC Pays de la Loire,Société d'économie mixte - Sem régionale des Pays de la Loire - Nantes (Loire-Atlantique),-95,Société d'économie mixte,47.2316356767,-1.54831008605,Nantes,Loire-Atlantique
303,2013-235,jf00138969.html,Rapport d'observations définitives,02/12/2013,CRC Pays de la Loire,Etablissement public territorial - Société Publique Régionale des Pays de la Loire - Nantes (Loire-Atlantique),-87,Etablissement public territorial,47.2316356767,-1.54831008605,Nantes,Loire-Atlantique
304,2013-57,jf00139003.html,Rapport d'observations définitives,19/11/2013,CRC Bretagne,Association - Association amicale des conseillers généraux des Côtes d'Armor - Saint-Brieuc (Côtes-d'Armor),-41,Association,48.514980605299996,-2.76154552773,Saint-Brieuc,Côtes-d'Armor
305,2013-43,jf00139019.html,Rapport d'observations définitives,08/10/2013,CRC Bretagne,Communauté d'agglomération - communaute d'agglomeration du Pays de Lorient - Lorient (Morbihan),30,Communauté d'agglomération,47.75004869470001,-3.37823200917,Lorient,Morbihan
306,,jf00139028.html,Rapport d'observations définitives,23/12/2013,CRC Basse-Normandie Haute-Normandie,Syndicat mixte - Syndicat mixte du Pays des Hautes Falaises - Fécamp (Seine-Maritime),-82,Syndicat mixte,49.752324530600006,0.395297587433,Fécamp,Seine-Maritime
307,2014-01,jf00139067.html,Rapport d'observations définitives,24/12/2013,CRC Guadeloupe-Guyane-Martinique,Région - Région Martinique - Fort-de-France (Martinique),-93,Région,14.6160647,-61.0587804,Fort-de-France,Martinique
308,2013-48,jf00139164.html,Rapport d'observations définitives,05/11/2013,CRC Bretagne,Commune - La Gouesniere - La Gouesnière (Ille-et-Vilaine),5,Commune,48.60307019020001,-1.88737306807,La Gouesnière,Ille-et-Vilaine
309,2013-49,jf00139168.html,Rapport d'observations définitives,08/11/2013,CRC Bretagne,Commune - Pordic - Pordic (Côtes-d'Armor),2,Commune,48.570227520799996,-2.82517190036,Pordic,Côtes-d'Armor
310,2013-53,jf00139170.html,Rapport d'observations définitives,13/11/2013,CRC Bretagne,Office public de l'habitat - Office public de l'habitat de Douarnenez - Douarnenez (Finistère),-233,Office public de l'habitat,48.080652655600005,-4.32784220122,Douarnenez,Finistère
311,2013-55,jf00139181.html,Rapport d'observations définitives,18/11/2013,CRC Bretagne,Commune - Melesse - Melesse (Ille-et-Vilaine),18,Commune,48.2193069814,-1.68950220558,Melesse,Ille-et-Vilaine
312,LRR201403,jf00139295.html,Rapport d'observations définitives,19/11/2013,CRC Languedoc-Roussillon,Association - Les Neiges Catalanes - Les Angles (Pyrénées-Orientales),-177,Association,42.5797574108,2.05268528008,Les Angles,Pyrénées-Orientales
313,,jf00139339.html,Rapport d'observations définitives,17/05/2013,CRC Auvergne Rhône-Alpes,Communauté de communes - Communaute de communes de la Plaine de l'Ain - Chazey-sur-Ain (Ain),-32,Communauté de communes,45.8929448968,5.25528498524,Chazey-sur-Ain,Ain
314,2014-001,jf00139355.html,Rapport d'observations définitives,19/11/2013,CRC Midi-Pyrénées,Société d'économie mixte - Société d'économie mixte Nouvelles Pyrénées - Lourdes (Hautes-Pyrénées),-7,Société d'économie mixte,43.10742973439999,-0.0768069387932,Lourdes,Hautes-Pyrénées
315,NPR201341,jf00139463.html,Rapport d'observations définitives,11/10/2013,CRC Nord-Pas-de-Calais Picardie,Régie - Régie départementale des transports de l'Aisne-RTA - Gauchy (Aisne),-49,Régie,49.8234688599,3.2864918966100003,Gauchy,Aisne
316,NPR201342,jf00139467.html,Rapport d'observations définitives,12/12/2013,CRC Nord-Pas-de-Calais Picardie,Etablissement hospitalier public - Centre hospitalier de Dunkerque - Dunkerque (Nord),-261,Etablissement hospitalier public,51.0307229078,2.33752414095,Dunkerque,Nord
317,NPR201344,jf00139468.html,Rapport d'observations définitives,20/09/2013,CRC Nord-Pas-de-Calais Picardie,Etablissement hospitalier public - Centre hospitalier d'Arras - Arras (Pas-de-Calais),-167,Etablissement hospitalier public,50.2898964997,2.76587316711,Arras,Pas-de-Calais
318,2013-50,jf00139530.html,Rapport d'observations définitives,08/11/2013,CRC Bretagne,Syndicat intercommunal - Syndicat intercommunal d'adduction d'eau du Trégor - Trélévern (Côtes-d'Armor),-39,Syndicat intercommunal,48.801785558,-3.36967789456,Trélévern,Côtes-d'Armor
319,213-56,jf00139702.html,Rapport d'observations définitives,18/11/2013,CRC Bretagne,Commune - Carhaix-Plouguer - Carhaix-Plouguer (Finistère),-277,Commune,48.268757882299994,-3.56626363851,Carhaix-Plouguer,Finistère
320,,jf00139854.html,Rapport d'observations définitives,04/10/2013,CRC Basse-Normandie Haute-Normandie,Communauté urbaine - Communaute urbaine de Cherbourg - Cherbourg-Octeville (Manche),-8,Communauté urbaine,49.633412156000006,-1.63390160204,Cherbourg-Octeville,Manche
321,2013-1563,jf00139861.html,Rapport d'observations définitives,20/12/2013,CRC Alsace,Centre de gestion de la fonction publique territoriale - Centre de gestion de la Fonction Publique Territoriale du Bas-Rhin - Lingolsheim (Bas-Rhin),-221,Centre de gestion de la fonction publique territoriale,48.55448758520001,7.68093840708,Lingolsheim,Bas-Rhin
322,2014001,jf00139892.html,Rapport d'observations définitives,22/11/2013,CRC Centre Limousin,Commune - Commune de Mainvilliers - Mainvilliers (Eure-et-Loir),-74,Commune,48.462541156099995,1.44581970225,Mainvilliers,Eure-et-Loir
323,13-0124 R,jf00139898.html,Rapport d'observations définitives,29/11/2013,CRC Ile-de-France,Commune - Pierrefitte-sur-Seine -  (Seine-Saint-Denis),-177,Commune,48.967903,2.364077,Pierrefitte-sur-Seine,Seine-Saint-Denis
324,,jf00139913.html,Rapport d'observations définitives,30/10/2013,CRC Basse-Normandie Haute-Normandie,Communauté d'agglomération - Communauté d'agglomération Rouen-Elbeuf-Austreberthe (CREA) - Rouen (Seine-Maritime),-12,Communauté d'agglomération,49.441346010299995,1.09256784278,Rouen,Seine-Maritime
325,2014-0004,jf00139984.html,Rapport d'observations définitives,19/11/2013,CRC Midi-Pyrénées,Commune - Decazeville - Decazeville (Aveyron),-70,Commune,44.567273002,2.25243853064,Decazeville,Aveyron
326,KAR D132946 KJF,jf00140011.html,Rapport d'observations définitives,07/11/2013,CRC Auvergne Rhône-Alpes,Commune - Saint-Genis-Pouilly - Saint-Genis-Pouilly (Ain),-152,Commune,46.254539333000004,6.0362907345000005,Saint-Genis-Pouilly,Ain
327,D133146,jf00140066.html,Rapport d'observations définitives,22/11/2013,CRC Auvergne Rhône-Alpes,Commune - THONES - Thônes (Haute-Savoie),37,Commune,45.8852613668,6.31953220709,Thônes,Haute-Savoie
328,,jf00140124.html,Rapport d'observations définitives,14/10/2013,CRC Basse-Normandie Haute-Normandie,Association - Association Pommes et Lutins - Villers-Bocage (Calvados),-229,Association,49.0782420975,-0.652664428102,Villers-Bocage,Calvados
329,,jf00140130.html,Rapport d'observations définitives,09/10/2013,CRC Basse-Normandie Haute-Normandie,Etablissement hospitalier public - Centre hospitalier de Flers - Flers (Orne),-289,Etablissement hospitalier public,48.7399319125,-0.562509564641,Flers,Orne
330,2013039,jf00140139.html,Rapport d'observations définitives,25/11/2013,CRC Centre Limousin,Communauté d'agglomération - Communauté d'agglomération de Tulle - Tulle (Corrèze),16,Communauté d'agglomération,45.2731516999,1.76313875655,Tulle,Corrèze
331,,jf00140143.html,Rapport d'observations définitives,26/11/2013,CRC Basse-Normandie Haute-Normandie,Commune - Agneaux -  (Manche),-17,Commune,49.1198819,-1.1131278999999998,Agneaux,Manche
332,2014002,jf00140224.html,Rapport d'observations définitives,01/04/2013,CRC Centre Limousin,Commune - Commune de Tulle - Tulle (Corrèze),-58,Commune,45.2731516999,1.76313875655,Tulle,Corrèze
333,2013-0096 R,jf00140227.html,Rapport d'observations définitives,25/11/2013,CRC Ile-de-France,"Centre hospitalier spécialisé - CHS ""Les Murets"" - La Queue-en-Brie (Val-de-Marne)",-33,Centre hospitalier spécialisé,48.7775866104,2.58385577608,La Queue-en-Brie,Val-de-Marne
334,2014-005,jf00140236.html,Rapport d'observations définitives,25/11/2013,CRC Midi-Pyrénées,Communauté de communes - Communauté de communes de la vallée de Saint-Savin - Saint-Savin (Hautes-Pyrénées),-99,Communauté de communes,42.9753213682,-0.0917828178997,Saint-Savin,Hautes-Pyrénées
335,CALR2013044,jf00140238.html,Rapport d'observations définitives,25/11/2013,CRC Champagne-Ardenne Lorraine,Commune - Commune d'Epinal - Epinal (Vosges),-22,Commune,48.16312026560001,6.47989286928,Epinal,Vosges
336,2014-007,jf00140245.html,Rapport d'observations définitives,30/10/2013,CRC Midi-Pyrénées,Commune - Lisle-sur-Tarn - Lisle-sur-Tarn (Tarn),83,Commune,43.8974980421,1.7820014386099998,Lisle-sur-Tarn,Tarn
337,2014-008,jf00140247.html,Rapport d'observations définitives,26/11/2013,CRC Midi-Pyrénées,Commune - Gramat - Gramat (Lot),-20,Commune,44.76356036439999,1.71620459363,Gramat,Lot
338,LRR201407,jf00140260.html,Rapport d'observations définitives,09/12/2013,CRC Languedoc-Roussillon,Etablissement hospitalier public - Centre hospitalier de Mende - Mende (Lozère),-396,Etablissement hospitalier public,44.529450859200004,3.48086881176,Mende,Lozère
339,2013-47,jf00140314.html,Rapport d'observations définitives,05/11/2013,CRC Bretagne,Commune - Domloup - Domloup (Ille-et-Vilaine),-3,Commune,48.067068804099996,-1.5428838018200002,Domloup,Ille-et-Vilaine
340,2013-47,jf00140321.html,Rapport d'observations définitives,05/11/2013,CRC Bretagne,Commune - Domloup - Domloup (Ille-et-Vilaine),-21,Commune,48.067068804099996,-1.5428838018200002,Domloup,Ille-et-Vilaine
341,2013-46,jf00140329.html,Rapport d'observations définitives,25/10/2013,CRC Bretagne,Commune - Questembert - Questembert (Morbihan),-3,Commune,47.66380177470001,-2.43671076032,Questembert,Morbihan
342,,jf00140349.html,Rapport d'observations définitives,05/05/2014,CRC Provence-Alpes-Côte d'Azur,Commune - Commune du Cannet - Le Cannet (Alpes-Maritimes),-103,Commune,43.5729768613,7.00642057758,Le Cannet,Alpes-Maritimes
343,,jf00140369.html,Rapport d'observations définitives,19/08/2013,CRC Centre Limousin,Commune - ORLEANS - Orleans (Loiret),22,Commune,47.91914269999999,1.8957822,Orleans,Loiret
344,,jf00140377.html,Rapport d'observations définitives,06/05/2014,CRC Aquitaine Poitou-Charentes,Commune - Roullet-Saint-Estèphe -  (Charente),74,Commune,45.5912616,0.0285704,Roullet-Saint-Estèphe,Charente
345,,jf00140378.html,Rapport d'observations définitives,06/05/2014,CRC Aquitaine Poitou-Charentes,Commune - Casteljaloux -  (Lot-et-Garonne),6,Commune,44.31374599999999,0.088354,Casteljaloux,Lot-et-Garonne
346,,jf00140406.html,Rapport d'observations définitives,30/10/2013,CRC Basse-Normandie Haute-Normandie,Communauté d'agglomération - Communauté d'agglomération Rouen-Elbeuf-Austreberthe (CREA) - Rouen (Seine-Maritime),133,Communauté d'agglomération,49.441346010299995,1.09256784278,Rouen,Seine-Maritime
347,,jf00140474.html,Rapport d'observations définitives,06/05/2014,CRC Aquitaine Poitou-Charentes,Commune - Gujan-Mestras -  (Gironde),-16,Commune,44.635731,-1.071189,Gujan-Mestras,Gironde
348,,jf00140498.html,Rapport d'observations définitives,14/05/2014,CRC Aquitaine Poitou-Charentes,Commune - Martignas-sur-Jalle -  (Gironde),-91,Commune,44.840366,-0.7749009,Martignas-sur-Jalle,Gironde
349,2014-009,jf00140565.html,Rapport d'observations définitives,29/11/2013,CRC Midi-Pyrénées,Communauté de communes - Communauté de communes de Gramat - Gramat (Lot),-84,Communauté de communes,44.76356036439999,1.71620459363,Gramat,Lot
350,2014- 331,jf00140589.html,Rapport d'observations définitives,12/05/2014,CRC Alsace,Communauté de communes - Communaute de communes du Pays de Thann - Cernay (Haut-Rhin),17,Communauté de communes,47.794507815299994,7.179328204089999,Cernay,Haut-Rhin
351,,jf00140614.html,Rapport d'observations définitives,19/05/2014,CRC Aquitaine Poitou-Charentes,Commune - Nay -  (Pyrénées-Atlantiques),41,Commune,43.20377149999999,-0.2927318,Place de la Mairie,Pyrénées-Atlantiques
352,,jf00140625.html,Rapport d'observations définitives,19/05/2014,CRC Aquitaine Poitou-Charentes,Syndicat mixte - Syndicat départemental d'équipement des communes des Landes (SYDEC) - Mont-de-Marsan (Landes),766,Syndicat mixte,43.899361404,-0.490722577455,Mont-de-Marsan,Landes
353,CALR201335,jf00140689.html,Rapport d'observations définitives,23/10/2013,CRC Champagne-Ardenne Lorraine,Département - Département de Meurthe-et-Moselle - Nancy (Meurthe-et-Moselle),-13,Département,48.6901995499,6.17588254434,Nancy,Meurthe-et-Moselle
354,2014-09,jf00140714.html,Rapport d'observations définitives,22/05/2014,CRC Auvergne Rhône-Alpes,Commune - Pierrelatte - Pierrelatte (Drôme),-48,Commune,44.3606937732,4.68715113615,Pierrelatte,Drôme
355,,jf00140721.html,Rapport d'observations définitives,27/05/2014,CRC Aquitaine Poitou-Charentes,Communauté d'agglomération - Agglomération Côte Basque-Adour (ACBA) - Bayonne (Pyrénées-Atlantiques),5,Communauté d'agglomération,43.492225401599995,-1.4660767435799995,Bayonne,Pyrénées-Atlantiques
356,CALR201337,jf00140737.html,Rapport d'observations définitives,24/10/2013,CRC Champagne-Ardenne Lorraine,Communauté d'agglomération - Communaute d'agglomeration Portes de France Thionville - Yutz (Moselle),77,Communauté d'agglomération,49.3517848092,6.20171929319,Yutz,Moselle
357,1008,jf00140741.html,Rapport d'observations définitives,14/05/2014,CRC Provence-Alpes-Côte d'Azur,Commune - Commune de Mougins - Mougins (Alpes-Maritimes),-3,Commune,43.59614105560001,7.00129444919,Mougins,Alpes-Maritimes
358,CALR201324,jf00140743.html,Rapport d'observations définitives,04/06/2013,CRC Champagne-Ardenne Lorraine,Etablissement public de coopération culturelle - Etablissement Public de Coopération Culturelle L'Autre Canal - Nancy (Meurthe-et-Moselle),-176,Etablissement public de coopération culturelle,48.6901995499,6.17588254434,Nancy,Meurthe-et-Moselle
359,,jf00140782.html,Rapport d'observations définitives,04/06/2014,CRC Aquitaine Poitou-Charentes,Communauté de communes - Communauté de communes du Val d'Albret - Nérac (Lot-et-Garonne),-5,Communauté de communes,44.132100433199994,0.343358299602,Nérac,Lot-et-Garonne
360,CALR201322,jf00140802.html,Rapport d'observations définitives,30/05/2013,CRC Champagne-Ardenne Lorraine,Office public de l'habitat - Office public de l'habitat de Chaumont - CHAUMONT (Haute-Marne),-94,Office public de l'habitat,48.0980144211,5.14070044621,CHAUMONT,Haute-Marne
361,2014- 368,jf00140818.html,Rapport d'observations définitives,06/05/2014,CRC Alsace,Etablissement hospitalier public - Centre hospitalier Saint Morand - Altkirch (Haut-Rhin),-130,Etablissement hospitalier public,47.6210336538,7.24484329622,Altkirch,Haut-Rhin
362,2014-02,jf00140850.html,Rapport d'observations définitives,07/05/2014,CRC Bretagne,Commune - La Gacilly - La Gacilly (Morbihan),-14,Commune,47.7728317091,-2.15651114837,La Gacilly,Morbihan
363,,jf00140910.html,Rapport d'observations définitives,20/06/2014,CRC Provence-Alpes-Côte d'Azur,Département - Conseil Général du Vaucluse - Avignon (Vaucluse),-218,Département,43.9352448339,4.84071572505,Avignon,Vaucluse
364,2013040,jf00140947.html,Rapport d'observations définitives,13/11/2013,CRC Centre Limousin,Communauté de communes - Communauté de communes de Beauce et du Gâtinais - Pithiviers (Loiret),57,Communauté de communes,48.1805102613,2.24994341572,Pithiviers,Loiret
365,2013041,jf00140949.html,Rapport d'observations définitives,26/11/2013,CRC Centre Limousin,Caisse des écoles - Caisse des écoles de Limoges - Limoges (Haute-Vienne),-15,Caisse des écoles,45.8542549589,1.2487579024,Limoges,Haute-Vienne
366,,jf00140961.html,Rapport d'observations définitives,17/06/2014,CRC Aquitaine Poitou-Charentes,Communauté de communes - Communauté de communes du Cubzaguais - Saint-André-de-Cubzac (Gironde),4,Communauté de communes,44.9954623723,-0.43596742679,Saint-André-de-Cubzac,Gironde
367,2014-03,jf00140963.html,Rapport d'observations définitives,14/05/2014,CRC Bretagne,Commune - Plérin - Plérin (Côtes-d'Armor),-26,Commune,48.5441732134,-2.77004635921,Plérin,Côtes-d'Armor
368,20140012,jf00140964.html,Rapport d'observations définitives,05/05/2014,CRC Midi-Pyrénées,Communauté de communes - bassin de Decazeville-Aubin - Decazeville (Aveyron),18,Communauté de communes,44.567273002,2.25243853064,Decazeville,Aveyron
369,,jf00140975.html,Rapport d'observations définitives,27/05/2014,CRC Basse-Normandie Haute-Normandie,Association - Agence pour le Développement Economique de l'agglomération rouennaise (ADEAR) - Rouen (Seine-Maritime),-35,Association,49.441346010299995,1.09256784278,Rouen,Seine-Maritime
370,,jf00140982.html,Rapport d'observations définitives,14/06/2013,CRC Auvergne Rhône-Alpes,Syndicat d'électrification - Syndicat départemental d'énergies de la Drôme - Valence (Drôme),-16,Syndicat d'électrification,44.9229811667,4.91444013136,Valence,Drôme
371,,jf00140986.html,Rapport d'observations définitives,23/06/2014,CRC Provence-Alpes-Côte d'Azur,Chambre de métiers - La Chambre de Métiers et l'Artisanat du Var - Toulon (Var),-557,Chambre de métiers,43.1361589728,5.932396342490001,Toulon,Var
372,,jf00140988.html,Rapport d'observations définitives,22/07/2013,CRC Auvergne Rhône-Alpes,Communauté de communes - Communaute de communes du Pays de Gex (CCPG) - Gex (Ain),0,Communauté de communes,46.34718917470001,6.0465055556800005,Gex,Ain
373,2014-12,jf00140999.html,Rapport d'observations définitives,11/06/2014,CRC Bretagne,Commune - Landéan - Landéan (Ille-et-Vilaine),1,Commune,48.4131956969,-1.14760395074,Landéan,Ille-et-Vilaine
374,,jf00141011.html,Rapport d'observations définitives,23/05/2014,CRC Basse-Normandie Haute-Normandie,Communauté de communes - Communaute de communes du Pays d'Argentan - Argentan (Orne),88,Communauté de communes,48.73218809189999,-0.0132322590535,Argentan,Orne
375,,jf00141012.html,Rapport d'observations définitives,01/03/2013,CRC Auvergne Rhône-Alpes,Commune - Saint-Gervais-les-Bains - Saint-Gervais-les-Bains (Haute-Savoie),16,Commune,45.8571864862,6.74016257718,Saint-Gervais-les-Bains,Haute-Savoie
376,,jf00141023.html,Rapport d'observations définitives,28/06/2014,CRC Provence-Alpes-Côte d'Azur,Commune - Graveson - Graveson (Bouches-du-Rhône),-21,Commune,43.8539111696,4.76717369182,Graveson,Bouches-du-Rhône
377,,jf00141028.html,Rapport d'observations définitives,26/06/2014,CRC Aquitaine Poitou-Charentes,Communauté de communes - Communauté de communes de la région de Couhé - Couhé (Vienne),-37,Communauté de communes,46.2960515844,0.179497066899,Couhé,Vienne
378,2014-08,jf00141044.html,Rapport d'observations définitives,04/06/2014,CRC Bretagne,Etablissement hospitalier public - Centre hospitalier de Bretagne Atlantique - Vannes (Morbihan),-192,Etablissement hospitalier public,47.6597493766,-2.75714329498,Vannes,Morbihan
379,2014-09,jf00141052.html,Rapport d'observations définitives,10/06/2014,CRC Bretagne,Commune - Quimperlé - Quimperlé (Finistère),162,Commune,47.85613033550001,-3.55642894655,Quimperlé,Finistère
380,2013-237,jf00141055.html,Rapport d'observations définitives,20/12/2013,CRC Pays de la Loire,Etablissement public industriel et commercial - Angers Agglomération Développement - ANGERS (Maine-et-Loire),-89,Etablissement public industriel et commercial,47.476837416,-0.556125995444,ANGERS,Maine-et-Loire
381,CALR201408,jf00141079.html,Rapport d'observations définitives,20/05/2014,CRC Champagne-Ardenne Lorraine,Commune - commune de Verdun - Verdun (Meuse),-243,Commune,49.1454831903,5.361418212609999,Verdun,Meuse
382,2014-13,jf00141099.html,Rapport d'observations définitives,11/06/2014,CRC Bretagne,Etablissement hospitalier public - Centre hospitalier des Marches de Bretagne - Antrain (Ille-et-Vilaine),-94,Etablissement hospitalier public,48.4623399244,-1.4787589763100002,Antrain,Ille-et-Vilaine
383,2014-0015,jf00141107.html,Rapport d'observations définitives,03/06/2014,CRC Midi-Pyrénées,Communauté de communes - Figeac communauté - Figeac (Lot),-71,Communauté de communes,44.6055314625,2.02540303775,Figeac,Lot
384,2013-230,jf00141115.html,Rapport d'observations définitives,12/11/2013,CRC Pays de la Loire,Société d'économie mixte - Société d'économie mixte d'Equipement du Mans - Le Mans (Sarthe),-84,Société d'économie mixte,47.988525671800005,0.200030493539,Le Mans,Sarthe
385,CALR201407,jf00141122.html,Rapport d'observations définitives,20/05/2014,CRC Champagne-Ardenne Lorraine,Communauté de communes - Communaute de communes de Verdun - Verdun (Meuse),-304,Communauté de communes,49.1454831903,5.361418212609999,Verdun,Meuse
386,2013-231,jf00141124.html,Rapport d'observations définitives,15/11/2013,CRC Pays de la Loire,Commune - Haute Goulaine -  (Loire-Atlantique),-5,Commune,47.1982209,-1.431196,Haute-Goulaine,Loire-Atlantique
387,,jf00141129.html,Rapport d'observations définitives,04/07/2014,CRC Provence-Alpes-Côte d'Azur,Syndicat mixte - Syndicat Mixte Europole de l'Arbois - Aix-en-Provence (Bouches-du-Rhône),-237,Syndicat mixte,43.5360708378,5.3985744458200005,Aix-en-Provence,Bouches-du-Rhône
388,,jf00141158.html,Rapport d'observations définitives,03/07/2014,CRC Aquitaine Poitou-Charentes,Etablissement hospitalier public - Centre Hospitalier Régional Universitaire (CHU) - Bordeaux (Gironde),-110,Etablissement hospitalier public,44.8572445351,-0.57369678116,Bordeaux,Gironde
389,2014-10,jf00141163.html,Rapport d'observations définitives,10/06/2014,CRC Bretagne,Association - Agence de développement économique du pays de Lorient (AudéLor) - Lorient (Morbihan),-65,Association,47.75004869470001,-3.37823200917,Lorient,Morbihan
390,621,jf00141177.html,Rapport d'observations définitives,05/05/2014,CRC Nord-Pas-de-Calais Picardie,Région - Picardie - Amiens (Somme),179,Région,49.900953218599994,2.29007445539,Amiens,Somme
391,605,jf00141178.html,Rapport d'observations définitives,26/05/2014,CRC Nord-Pas-de-Calais Picardie,Commune - Sin le Noble -  (Nord),-235,Commune,50.365851000000006,3.114329,Sin-le-Noble,Nord
392,2014-05,jf00141222.html,Rapport d'observations définitives,15/05/2014,CRC Bretagne,Commune - Saint-Renan - Saint-Renan (Finistère),57,Commune,48.4258372849,-4.62348821209,Saint-Renan,Finistère
393,2014-0019,jf00141251.html,Rapport d'observations définitives,05/05/2014,CRC Midi-Pyrénées,Syndicat mixte - Syndicat mixte de l'agglomération Tarbaise - Bours (Hautes-Pyrénées),-40,Syndicat mixte,43.2761096704,0.0907724442987,Bours,Hautes-Pyrénées
394,2014-209,jf00141258.html,Rapport d'observations définitives,22/05/2014,CRC Pays de la Loire,Maison de retraite - Argance - Durtal (Maine-et-Loire),-239,Maison de retraite,47.6780515421,-0.254608332885,Durtal,Maine-et-Loire
395,2014-07,jf00141259.html,Rapport d'observations définitives,03/06/2014,CRC Bretagne,Communauté d'agglomération - Communauté d'agglomération de Lorient - Lorient (Morbihan),493,Communauté d'agglomération,47.75004869470001,-3.37823200917,Lorient,Morbihan
396,2014-213,jf00141267.html,Rapport d'observations définitives,06/06/2014,CRC Pays de la Loire,Syndicat mixte - Syndicat mixte du Pays Yon et Vie - La Roche-sur-Yon (Vendée),642,Syndicat mixte,46.667526164399995,-1.4077954093,La Roche-sur-Yon,Vendée
397,CALR201410,jf00141274.html,Rapport d'observations définitives,22/05/2014,CRC Champagne-Ardenne Lorraine,Commune - Commune de Freyming-Merlebach - Freyming-Merlebach (Moselle),-46,Commune,49.1525756195,6.79731056431,Freyming-Merlebach,Moselle
398,2014-215,jf00141279.html,Rapport d'observations définitives,06/06/2014,CRC Pays de la Loire,"Communauté de communes - Vie et Boulogne - Le Poiré-sur-Vie
 (Vendée)",645,Communauté de communes,46.76991975399999,-1.5048862645200003,Le Poiré-sur-Vie,Vendée
399,2014-15,jf00141284.html,Rapport d'observations définitives,17/06/2014,CRC Bretagne,Communauté de communes - Communaute de communes du pays de Lesneven et de la Cote des legendes - Lesneven (Finistère),-60,Communauté de communes,48.5801251196,-4.31293757639,Lesneven,Finistère
400,2014-0018,jf00141312.html,Rapport d'observations définitives,05/05/2014,CRC Midi-Pyrénées,Syndicat intercommunal - Syndicat départemental des stations de sports d'hiver des Hautes-Pyrénées - Tarbes (Hautes-Pyrénées),-8,Syndicat intercommunal,43.2347859635,0.0660093937851,Tarbes,Hautes-Pyrénées
401,14-0038 R,jf00141314.html,Rapport d'observations définitives,22/05/2014,CRC Ile-de-France,Département - Departement des Hauts-de-Seine - Nanterre (Hauts-de-Seine),67,Département,48.896070128199995,2.20671346353,Nanterre,Hauts-de-Seine
402,13-0314 R,jf00141319.html,Rapport d'observations définitives,06/05/2014,CRC Ile-de-France,Commune - Sannois - Sannois (Val-d'Oise),-201,Commune,48.9717773111,2.25299514112,Sannois,Val-d'Oise
403,14-0083 R,jf00141322.html,Rapport d'observations définitives,19/06/2014,CRC Ile-de-France,Commune - Meaux - Meaux (Seine-et-Marne),1026,Commune,48.9570625667,2.90003097245,Meaux,Seine-et-Marne
